uid;code;label;description;lat;lon;CATUTTC;addressPostCode;addressAdminUnitL1;addressAdminUnitL2;addressAdminUnitL3;addressAdminUnitL4;addressPostName;addressThoroughfare;addressLocatorDesignator;addressDescription;zoneId;url;type;parentStation;timezone;wheelchairBoarding
5159;50;Дорошенка (50);null;49.840237;24.027244;UA46060250010015970;79000;Україна;Львівська область;Львівський;Львівська ;Львів;вул. П. Дорошенка;3;null;0;null;0;null;Europe/Kyiv;null
4977;223;Липова Алея (223);null;49.822388;24.054396;UA46060250010015970;79000;Україна;Львівська область;Львівський;Львівська ;Львів;вул. Зелена;113;null;0;null;0;null;Europe/Kyiv;null
4800;403;Податкова (403);null;49.814562;24.021947;UA46060250010015970;79000;Україна;Львівська область;Львівський;Львівська ;Львів;вул. І. Чмоли;1;null;0;null;0;null;Europe/Kyiv;null
5043;93;Гайовської (93);null;49.844742;23.945652;UA46060250010015970;79000;Україна;Львівська область;Львівський;Львівська ;Львів;вул. Білогорща;50;навпроти №50;0;null;0;null;Europe/Kyiv;null
5047;88;Гайовської (88);null;49.844787;23.945249;UA46060250010015970;79000;Україна;Львівська область;Львівський;Львівська ;Львів;вул. Білогорща;50;null;0;null;0;null;Europe/Kyiv;null
4656;1052;Брюховичі, Арктична (1052);null;49.901262;23.935706;UA46060250040091928;79491;Україна;Львівська область;Львівський;Львівська ;Брюховичі;вул. В. Івасюка;6;null;0;null;0;null;Europe/Kyiv;null
4825;478;Автобусний завод (478);null;49.808316;24.016982;UA46060250010015970;79000;Україна;Львівська область;Львівський;Львівська ;Львів;вул. Володимира Великого;2;null;0;null;0;null;Europe/Kyiv;null
z-111-01;111-01;Приміський вокзал (111-01);null;49.836374;23.997509;UA46060250010015970;79000;Україна;Львівська область;Львівський;Львівська ;Львів;вул. Городоцька;112;null;0;null;0;null;Europe/Kyiv;null
4861;365;Вашингтона (365);null;49.815921;24.063009;UA46060250010015970;79000;Україна;Львівська область;Львівський;Львівська ;Львів;вул. Дж. Вашингтона;null;вул. Зелена, 147;0;null;0;null;Europe/Kyiv;null
5057;1012;Винники, Шептицьких (1012);null;49.802299;24.135584;UA46060250010015970;79000;Україна;Львівська область;Львівський;Львівська ;Львів;вул. Забава;1а;null;0;null;0;null;Europe/Kyiv;null
4813;399;Кос-Анатольського (399);null;49.791274;24.06744;UA46060250010015970;79000;Україна;Львівська область;Львівський;Львівська ;Львів;вул. І. Кавалерідзе;15;null;0;null;0;null;Europe/Kyiv;null
5053;406;Трильовського (406);null;49.783734;24.067279;UA46060250010015970;79000;Україна;Львівська область;Львівський;Львівська ;Львів;вул. К. Трильовського;21;null;0;null;0;null;Europe/Kyiv;null
4955;526;Горбачевського (526);null;49.826083;24.0093;UA46060250010015970;79000;Україна;Львівська область;Львівський;Львівська ;Львів;вул. Княгині Ольги;null;перехрестя з вул. Академіка А. Сахарова;0;null;0;null;Europe/Kyiv;null
5156;237;Кукурудзяна (237);null;49.862465;24.060386;UA46060250010015970;79000;Україна;Львівська область;Львівський;Львівська ;Львів;вул. Кукурудзяна;null;перехрестя з вул. Ковельською;0;null;0;null;Europe/Kyiv;null
4665;1061;Брюховичі, Курортна (1061);null;49.904392;23.960066;UA46060250040091928;79491;Україна;Львівська область;Львівський;Львівська ;Брюховичі;вул. Курортна;null;вул. Львівська, 23;0;null;0;null;Europe/Kyiv;null
4662;1063;Брюховичі, Вокзал (1063);null;49.904133;23.940427;UA46060250040091928;79491;Україна;Львівська область;Львівський;Львівська ;Брюховичі;вул. Незалежності;null;перехрестя з вул. Незалежності України;0;null;0;null;Europe/Kyiv;null
4664;1059;Брюховичі, Пляжна (1059);null;49.905602;23.957378;UA46060250040091928;79491;Україна;Львівська область;Львівський;Львівська ;Брюховичі;вул. Курортна;20;null;0;null;0;null;Europe/Kyiv;null
z-413;413;Львівхолод (413);null;49.807762;24.053428;UA46060250010015970;79000;Україна;Львівська область;Львівський;Львівська ;Львів;вул. Луганська;6;null;0;null;0;null;Europe/Kyiv;null
4666;1068;Брюховичі, Джерело (1068);null;49.901241;23.960039;UA46060250040091928;79491;Україна;Львівська область;Львівський;Львівська ;Брюховичі;вул. Львівська;null;null;0;null;0;null;Europe/Kyiv;null
4866;268;Каштанова (268);null;49.824522;24.079285;UA46060250010015970;79000;Україна;Львівська область;Львівський;Львівська ;Львів;вул. Медової Печери;30;null;0;null;0;null;Europe/Kyiv;null
4868;269;Каштанова (269);null;49.824678;24.079086;UA46060250010015970;79000;Україна;Львівська область;Львівський;Львівська ;Львів;вул. Медової Печери;45;null;0;null;0;null;Europe/Kyiv;null
5046;164;Роксоляни (164);null;49.843999;23.958526;UA46060250010015970;79000;Україна;Львівська область;Львівський;Львівська ;Львів;вул. Роксоляни;null;вул. Широка, 94;0;null;0;null;Europe/Kyiv;null
5044;165;Роксоляни (165);null;49.843995;23.958357;UA46060250010015970;79000;Україна;Львівська область;Львівський;Львівська ;Львів;вул. Роксоляни;null;перехрестя з вул. Білогорща;0;null;0;null;Europe/Kyiv;null
4751;689;Шевченка (689);null;49.861706;23.966519;UA46060250010015970;79000;Україна;Львівська область;Львівський;Львівська ;Львів;вул. Т. Шевченка;264;null;0;null;0;null;Europe/Kyiv;null
5045;193;Гніздовського (193);null;49.84176;23.966659;UA46060250010015970;79000;Україна;Львівська область;Львівський;Львівська ;Львів;вул. Широка;68;null;0;null;0;null;Europe/Kyiv;null
4999;354-01;Антонича (354-01);null;49.785195;24.069607;UA46060250010015970;79000;Україна;Львівська область;Львівський;Львівська ;Львів;вул. Б. - І. Антонича;12;null;0;null;0;null;Europe/Kyiv;null
5049;91;Народний дім Білогорща (91);null;49.84449;23.938168;UA46060250010015970;79000;Україна;Львівська область;Львівський;Львівська ;Львів;вул. Білогорща;118;null;0;null;0;null;Europe/Kyiv;null
5040;90;Білогорща (90);null;49.84569;23.929682;UA46060250010015970;79000;Україна;Львівська область;Львівський;Львівська ;Львів;вул. Білогорща;71;null;0;null;0;null;Europe/Kyiv;null
z-724;724;Малковицька (724);null;49.873778;23.951225;UA46060250010015970;79000;Україна;Львівська область;Львівський;Львівська ;Львів;вул. Брюховицька;145;null;0;null;0;null;Europe/Kyiv;null
z-718;718;Брюховицька (718);null;49.859911;23.970902;UA46060250010015970;79000;Україна;Львівська область;Львівський;Львівська ;Львів;вул. Брюховицька;4;null;0;null;0;null;Europe/Kyiv;null
4659;1055;Брюховичі, Ягідна (1055);null;49.902589;23.930982;UA46060250040091928;79491;Україна;Львівська область;Львівський;Львівська ;Брюховичі;вул. В. Івасюка;45;null;0;null;0;null;Europe/Kyiv;null
4658;1056;Брюховичі, Кардіологічна лікарня (1056);null;49.905087;23.927563;UA46060250040091928;79491;Україна;Львівська область;Львівський;Львівська ;Брюховичі;вул. В. Івасюка;69;null;0;null;0;null;Europe/Kyiv;null
4657;1054;Брюховичі, Ягідна (1054);null;49.903691;23.929524;UA46060250040091928;79491;Україна;Львівська область;Львівський;Львівська ;Брюховичі;вул. В. Івасюка;32;null;0;null;0;null;Europe/Kyiv;null
z-326;326;Поліклініка №2 (326);null;49.809545;23.988369;UA46060250010015970;79000;Україна;Львівська область;Львівський;Львівська ;Львів;вул. В. Симоненка;3;null;0;null;0;null;Europe/Kyiv;null
4792;622;Струмок (622);null;49.857863;24.011624;UA46060250010015970;79000;Україна;Львівська область;Львівський;Львівська ;Львів;вул. Варшавська;44;null;0;null;0;null;Europe/Kyiv;null
5109;12;Львівська політехніка (12);null;49.834546;24.016457;UA46060250010015970;79000;Україна;Львівська область;Львівський;Львівська ;Львів;вул. Генерала Т. Чупринки;null;вул. С. Бандери, 11;0;null;0;null;Europe/Kyiv;null
4848;111;Приміський вокзал (111);null;49.83574;23.995594;UA46060250010015970;79000;Україна;Львівська область;Львівський;Львівська ;Львів;вул. Городоцька;169;навпроти №169;0;null;0;null;Europe/Kyiv;null
z-41;41;Театр опери та балету (41);null;49.844326;24.025034;UA46060250010015970;79000;Україна;Львівська область;Львівський;Львівська ;Львів;вул. Городоцька;3;null;0;null;0;null;Europe/Kyiv;null
5182;759;Дністерська (759);null;49.818116;24.057961;UA46060250010015970;79000;Україна;Львівська область;Львівський;Львівська ;Львів;вул. Дністерська;1;null;0;null;0;null;Europe/Kyiv;null
5123;366;Дунайська (366);null;49.816622;24.050859;UA46060250010015970;79000;Україна;Львівська область;Львівський;Львівська ;Львів;вул. Дністерська;17;null;0;null;0;null;Europe/Kyiv;null
5181;760;Дністерська (760);null;49.818161;24.057797;UA46060250010015970;79000;Україна;Львівська область;Львівський;Львівська ;Львів;вул. Дністерська;2;null;0;null;0;null;Europe/Kyiv;null
5072;1011;Винники. Козацька (1011);null;49.802796;24.12923;UA46060250010015970;79000;Україна;Львівська область;Львівський;Львівська ;Львів;вул. Забава;46;null;0;null;0;null;Europe/Kyiv;null
5071;1013;Винники, Шептицьких (1013);null;49.802342;24.134892;UA46060250010015970;79000;Україна;Львівська область;Львівський;Львівська ;Львів;вул. Забава;8а;null;0;null;0;null;Europe/Kyiv;null
4649;652;Дитячий диспансер (652);null;49.877615;24.004027;UA46060250010015970;79000;Україна;Львівська область;Львівський;Львівська ;Львів;вул. Замарстинівська;274;null;0;null;0;null;Europe/Kyiv;null
5095;660;Миколайчука (660);null;49.865712;24.044266;UA46060250010015970;79000;Україна;Львівська область;Львівський;Львівська ;Львів;вул. І. Миколайчука;null;null;0;null;0;null;Europe/Kyiv;null
4944;236;Кукурудзяна (236);null;49.862363;24.060637;UA46060250010015970;79000;Україна;Львівська область;Львівський;Львівська ;Львів;вул. Кукурудзяна;null;перехрестя з вул. Ковельською;0;null;0;null;Europe/Kyiv;null
4653;1064;Брюховичі, Пляжна (1064);null;49.905736;23.95718;UA46060250040091928;79491;Україна;Львівська область;Львівський;Львівська ;Брюховичі;вул. Курортна;null;перехрестя з вул. Пляжна;0;null;0;null;Europe/Kyiv;null
4744;143;Ливарна (143);null;49.84459;23.984318;UA46060250010015970;79000;Україна;Львівська область;Львівський;Львівська ;Львів;вул. Левандівська;15;null;0;null;0;null;Europe/Kyiv;null
4772;144;Ливарна (144);null;49.84449;23.983653;UA46060250010015970;79000;Україна;Львівська область;Львівський;Львівська ;Львів;вул. Левандівська;20;null;0;null;0;null;Europe/Kyiv;null
z-412;412;Львівхолод (412);null;49.807496;24.054619;UA46060250010015970;79000;Україна;Львівська область;Львівський;Львівська ;Львів;вул. Луганська;3;null;0;null;0;null;Europe/Kyiv;null
4652;1065;Брюховичі, Курортна (1065);null;49.903743;23.96022;UA46060250040091928;79491;Україна;Львівська область;Львівський;Львівська ;Брюховичі;вул. Львівська;20;null;0;null;0;null;Europe/Kyiv;null
5006;663;Хвильового (663);null;49.870428;24.04286;UA46060250010015970;79000;Україна;Львівська область;Львівський;Львівська ;Львів;вул. М. Хвильового;null;вул. І. Миколайчука, 65;0;null;0;null;Europe/Kyiv;null
4802;420;Сквер імені Павла Думанського (420);null;49.813789;24.035817;UA46060250010015970;79000;Україна;Львівська область;Львівський;Львівська ;Львів;вул. П. Мирного;26;null;0;null;0;null;Europe/Kyiv;null
z-666;666;Тичини (666);null;49.868875;24.034111;UA46060250010015970;79000;Україна;Львівська область;Львівський;Львівська ;Львів;вул. П. Тичини;14;null;0;null;0;null;Europe/Kyiv;null
5155;755;Протезний завод (755);null;49.836676;23.968504;UA46060250010015970;79000;Україна;Львівська область;Львівський;Львівська ;Львів;вул. Рудненська;10;навпроти №10 ;0;null;0;null;Europe/Kyiv;null
5039;172;Петлюри (172);null;49.819815;23.980696;UA46060250010015970;79000;Україна;Львівська область;Львівський;Львівська ;Львів;вул. С. Петлюри;30;null;0;null;0;null;Europe/Kyiv;null
5034;173;Петлюри (173);null;49.81981;23.980874;UA46060250010015970;79000;Україна;Львівська область;Львівський;Львівська ;Львів;вул. С. Петлюри;37;null;0;null;0;null;Europe/Kyiv;null
5035;171;Садова (171);null;49.822107;23.979332;UA46060250010015970;79000;Україна;Львівська область;Львівський;Львівська ;Львів;вул. С. Петлюри;17;null;0;null;0;null;Europe/Kyiv;null
4830;426;Кавалерідзе (426);null;49.794394;24.063186;UA46060250010015970;79000;Україна;Львівська область;Львівський;Львівська ;Львів;вул. Сихівська;20;null;0;null;0;null;Europe/Kyiv;null
z-290;290;Знесіння (290);null;49.851197;24.059023;UA46060250010015970;79000;Україна;Львівська область;Львівський;Львівська ;Львів;вул. Старознесенська;23;null;0;null;0;null;Europe/Kyiv;null
4794;696;Ковча (696);null;49.854006;23.985048;UA46060250010015970;79000;Україна;Львівська область;Львівський;Львівська ;Львів;вул. Т. Шевченка;154б;null;0;null;0;null;Europe/Kyiv;null
4769;186;Ковча (186);null;49.853766;23.9853;UA46060250010015970;79000;Україна;Львівська область;Львівський;Львівська ;Львів;вул. Т. Шевченка;154б;навпроти №154Б;0;null;0;null;Europe/Kyiv;null
4755;694;Рясне-1 (694);null;49.868021;23.952556;UA46060250010015970;79000;Україна;Львівська область;Львівський;Львівська ;Львів;вул. Т. Шевченка;358;null;0;null;0;null;Europe/Kyiv;null
4885;681;Ярослава Мудрого (681);null;49.845348;24.008448;UA46060250010015970;79000;Україна;Львівська область;Львівський;Львівська ;Львів;вул. Т. Шевченка;60;null;0;null;0;null;Europe/Kyiv;null
z-82;82;Магнус (82);null;49.844436;24.024321;UA46060250010015970;79000;Україна;Львівська область;Львівський;Львівська ;Львів;вул. Городоцька;null;вул. Городоцька, 4;0;null;0;null;Europe/Kyiv;null
5167;1183;Лисиничі Центр (1183);null;49.835385;24.12157;UA46060250130067842;81126;Україна;Львівська область;Львівський;Львівська ;Лисиничі;вул. Винниківська;null;null;0;null;0;null;Europe/Kyiv;null
4670;6;Куліша (6);null;49.849412;24.025209;UA46060250010015970;79000;Україна;Львівська область;Львівський;Львівська ;Львів;просп. В. Чорновола;41;null;0;null;0;null;Europe/Kyiv;null
4965;1073;Брюховичі. Вокзал (1073);null;49.903605;23.940046;UA46060250040091928;79491;Україна;Львівська область;Львівський;Львівська ;Брюховичі;вул. Незалежності;null;перехрестя з вул. Курортна;0;null;0;null;Europe/Kyiv;null
z-83;83;П’ясецького (83);null;49.825571;23.936575;UA46060250010015970;79000;Україна;Львівська область;Львівський;Львівська ;Львів;вул. Генерала В. Курмановича;null;навпроти А. П’ясецького, 1-А;0;null;0;null;Europe/Kyiv;null
5197;1441;Збиранка.Центр (1441);null;49.900583;24.018307;UA46060250120043789;82823;Україна;Львівська область;Львівський;Львівська ;Збиранка;вул. Нова;null;null;0;null;0;null;Europe/Kyiv;null
2560987;594;Галицьке перехрестя (594);null;49.875254;24.061984;UA46060250010015970;79000;Україна;Львівська область;Львівський;Львівська ;Львів;вул. Б. Хмельницького;289;null;0;null;0;null;Europe/Kyiv;null
4680;586;Фабрика повидла (586);null;49.855379;24.044974;UA46060250010015970;79000;Україна;Львівська область;Львівський;Львівська ;Львів;вул. Б. Хмельницького;null;null;0;null;0;null;Europe/Kyiv;null
2561015;1081;Брюховичі, Весняна (1081);null;49.89932;23.961563;UA46060250040091928;79491;Україна;Львівська область;Львівський;Львівська ;Брюховичі;вул. Весняна;null;null;0;null;0;null;Europe/Kyiv;null
2561016;1082;Брюховичі, Весняна (1082);null;49.89922;23.961552;UA46060250040091928;79491;Україна;Львівська область;Львівський;Львівська ;Брюховичі;вул. Весняна;null;null;0;null;0;null;Europe/Kyiv;null
4661;1057;Брюховичі, Прилуцька (1057);null;49.90203;23.93214;UA46060250040091928;79491;Україна;Львівська область;Львівський;Львівська ;Брюховичі;вул. В. Івасюка;28;null;0;null;0;null;Europe/Kyiv;null
2562644;1094;Брюховичі, Прилуцька (1094);null;49.90181;23.93235;UA46060250040091928;79491;Україна;Львівська область;Львівський;Львівська ;Брюховичі;вул. В. Івасюка;30;null;0;null;0;null;Europe/Kyiv;null
z-1050;1050;Брюховичі, Невеличука (1050);null;49.908355;23.931248;UA46060250040091928;79491;Україна;Львівська область;Львівський;Львівська ;Брюховичі;вул. Незалежності;58;навпроти №58;0;null;0;null;Europe/Kyiv;null
2562645;1070;Брюховичі, Офіс Громади (1070);null;49.902661;23.941323;UA46060250040091928;79491;Україна;Львівська область;Львівський;Львівська ;Брюховичі;вул. Незалежності;27;null;0;null;0;null;Europe/Kyiv;null
4960;1071;Брюховичі, Малинова (1071);null;49.89978;23.9429;UA46060250040091928;79491;Україна;Львівська область;Львівський;Львівська ;Брюховичі;вул. Незалежності;37;null;0;null;0;null;Europe/Kyiv;null
z-1049;1049;Брюховичі,  Невеличука (1049);null;49.90849;23.931034;UA46060250040091928;79491;Україна;Львівська область;Львівський;Львівська ;Брюховичі;вул. Незалежності;58;null;0;null;0;null;Europe/Kyiv;null
5198;819;Голосківський цвинтар (819);null;49.887951;24.020676;UA46060250010015970;79000;Україна;Львівська область;Львівський;Львівська ;Львів;вул. І. Миколайчука;null;null;0;null;0;null;Europe/Kyiv;null
2560281;1174;Великі Грибовичі, Дублянська (1174);null;49.910352;24.069441;UA46060250060064618;80380;Україна;Львівська область;Львівський;Львівська ;Великі Грибовичі;вул. Дублянська;147;null;0;null;0;null;Europe/Kyiv;null
2560282;1172;Великі Грибовичі, Садова (1172);null;49.911433;24.054254;UA46060250060064618;80380;Україна;Львівська область;Львівський;Львівська ;Великі Грибовичі;вул. Дублянська;2;null;0;null;0;null;Europe/Kyiv;null
44944;1021;Винники, Винна Гора (1021);null;49.823065;24.136904;UA46060250020038547;79495;Україна;Львівська область;Львівський;Львівська ;Винники;вул. В. Івасюка;19;null;0;null;0;null;Europe/Kyiv;null
z-1043;1043;Винники, Парк  Вайнберг (1043);null;49.825671;24.155663;UA46060250020038547;79495;Україна;Львівська область;Львівський;Львівська ;Винники;вул. Кільцева;36;навпроти №36;0;null;0;null;Europe/Kyiv;null
z-1042;1042;Винники, Кільцева (1042);null;49.824306;24.154724;UA46060250020038547;79495;Україна;Львівська область;Львівський;Львівська ;Винники;вул. Кільцева;17;null;0;null;0;null;Europe/Kyiv;null
z-1039;1039;Винники, Гаражі (1039);null;49.824775;24.148298;UA46060250020038547;79495;Україна;Львівська область;Львівський;Львівська ;Винники;вул. Кільцева;5;null;0;null;0;null;Europe/Kyiv;null
z-1040;1040;"Винники, Гаражі (1040)	";null;49.824783;24.147818;UA46060250020038547;79495;Україна;Львівська область;Львівський;Львівська ;Винники;вул. Кільцева;5;null;0;null;0;null;Europe/Kyiv;null
z-1041;1041;Винники, Кільцева (1041);null;49.824581;24.15289;UA46060250020038547;79495;Україна;Львівська область;Львівський;Львівська ;Винники;вул. Кільцева;9;null;0;null;0;null;Europe/Kyiv;null
44098;1030;Винники, Стадіон (1030);null;49.80572;24.137092;UA46060250020038547;79495;Україна;Львівська область;Львівський;Львівська ;Винники;вул. І. Франка;110;null;0;null;0;null;Europe/Kyiv;null
44243;763;Розточчя (763);null;49.877875;24.042651;UA46060250010015970;79000;Україна;Львівська область;Львівський;Львівська ;Львів;вул. В. Щурата;null;вул. Розточчя, 168;0;null;0;null;Europe/Kyiv;null
44806;197-01;Погулянка (197-01);null;49.828997;24.056159;UA46060250010015970;79000;Україна;Львівська область;Львівський;Львівська ;Львів;вул. А. Вахнянина;27;null;0;null;0;null;Europe/Kyiv;null
5092;572;Лінкольна (572);null;49.866573;24.041219;UA46060250010015970;79000;Україна;Львівська область;Львівський;Львівська ;Львів;вул. А. Лінкольна;45;навпроти №45;0;null;0;null;Europe/Kyiv;null
4996;573;Міртова (573);null;49.864477;24.028044;UA46060250010015970;79000;Україна;Львівська область;Львівський;Львівська ;Львів;вул. А. Лінкольна;4а;навпроти №4А;0;null;0;null;Europe/Kyiv;null
5004;571;Міртова (571);null;49.864602;24.028382;UA46060250010015970;79000;Україна;Львівська область;Львівський;Львівська ;Львів;вул. А. Лінкольна;4а;null;0;null;0;null;Europe/Kyiv;null
5096;570;Лінкольна (570);null;49.866649;24.04117;UA46060250010015970;79000;Україна;Львівська область;Львівський;Львівська ;Львів;вул. А. Лінкольна;45;null;0;null;0;null;Europe/Kyiv;null
44235;306;Курмановича (306);null;49.826529;23.941741;UA46060250010015970;79000;Україна;Львівська область;Львівський;Львівська ;Львів;вул. Авіаційна;null;під мостом;0;null;0;null;Europe/Kyiv;null
5012;86;Авіаційна (86);null;49.824858;23.939402;UA46060250010015970;79000;Україна;Львівська область;Львівський;Львівська ;Львів;вул. Авіаційна;1;null;0;null;0;null;Europe/Kyiv;null
5162;85;Станція Скнилів (85);null;49.822028;23.936621;UA46060250010015970;79000;Україна;Львівська область;Львівський;Львівська ;Львів;вул. Авіаційна;2;null;0;null;0;null;Europe/Kyiv;null
5011;85-01;Станція Скнилів (85-01);null;49.822071;23.93631;UA46060250010015970;79000;Україна;Львівська область;Львівський;Львівська ;Львів;вул. Авіаційна;2;null;0;null;0;null;Europe/Kyiv;null
4954;470;Площа Лема (470);null;49.83155;24.016486;UA46060250010015970;79000;Україна;Львівська область;Львівський;Львівська ;Львів;вул. Академіка А. Сахарова;null;вул. І. Богуна, 12;0;null;0;null;Europe/Kyiv;null
z-758;758;Куликівська (758);null;49.82402;24.012224;UA46060250010015970;79000;Україна;Львівська область;Львівський;Львівська ;Львів;вул. Академіка А. Сахарова;23;null;0;null;0;null;Europe/Kyiv;null
z-757;757;Куликівська (757);null;49.824076;24.011972;UA46060250010015970;79000;Україна;Львівська область;Львівський;Львівська ;Львів;вул. Академіка А. Сахарова;76;null;0;null;0;null;Europe/Kyiv;null
z-0472;0472;Горбачевського (0472);null;49.825446;24.010786;UA46060250010015970;79000;Україна;Львівська область;Львівський;Львівська ;Львів;вул. Академіка А. Сахарова;56;null;0;null;0;null;Europe/Kyiv;null
z-471;471;Горбачевського (471);null;49.825892;24.010631;UA46060250010015970;79000;Україна;Львівська область;Львівський;Львівська ;Львів;вул. Академіка А. Сахарова;17;null;0;null;0;null;Europe/Kyiv;null
z-473;473;Кредобанк (473);null;49.821556;24.01651;UA46060250010015970;79000;Україна;Львівська область;Львівський;Львівська ;Львів;вул. Академіка А. Сахарова;78;null;0;null;0;null;Europe/Kyiv;null
45249;354;Антонича (354);null;49.785185;24.069741;UA46060250010015970;79000;Україна;Львівська область;Львівський;Львівська ;Львів;вул. Б. - І. Антонича;8;null;0;null;0;null;Europe/Kyiv;null
4623;477;Антоновича (477);null;49.825602;23.990461;UA46060250010015970;79000;Україна;Львівська область;Львівський;Львівська ;Львів;вул. Б. - І. Антонича;4;null;0;null;0;null;Europe/Kyiv;null
4625;475;Мельника (475);null;49.831671;24.001206;UA46060250010015970;79000;Україна;Львівська область;Львівський;Львівська ;Львів;вул. Б. - І. Антонича;49;null;0;null;0;null;Europe/Kyiv;null
4624;476;Залізняка (476);null;49.829827;23.998137;UA46060250010015970;79000;Україна;Львівська область;Львівський;Львівська ;Львів;вул. Б. - І. Антонича;77;null;0;null;0;null;Europe/Kyiv;null
4644;576;Чигиринська (576);null;49.870596;24.055314;UA46060250010015970;79000;Україна;Львівська область;Львівський;Львівська ;Львів;вул. Б. Грінченка;1;null;0;null;0;null;Europe/Kyiv;null
5094;639;Грінченка (639);null;49.873166;24.049864;UA46060250010015970;79000;Україна;Львівська область;Львівський;Львівська ;Львів;вул. Б. Грінченка;13;null;0;null;0;null;Europe/Kyiv;null
45009;577;Грінченка (577);null;49.872018;24.052114;UA46060250010015970;79000;Україна;Львівська область;Львівський;Львівська ;Львів;вул. Б. Грінченка;13а;null;0;null;0;null;Europe/Kyiv;null
4564;575;Чигиринська (575);null;49.870691;24.055434;UA46060250010015970;79000;Україна;Львівська область;Львівський;Львівська ;Львів;вул. Б. Грінченка;2а;null;0;null;0;null;Europe/Kyiv;null
4643;639-1;Грінченка (639-1);null;49.872831;24.050309;UA46060250010015970;79000;Україна;Львівська область;Львівський;Львівська ;Львів;вул. Б. Грінченка;48;null;0;null;0;null;Europe/Kyiv;null
5142;574;Грінченка (574);null;49.872029;24.052296;UA46060250010015970;79000;Україна;Львівська область;Львівський;Львівська ;Львів;вул. Б. Грінченка;6;null;0;null;0;null;Europe/Kyiv;null
4708;587;Автостанція №2 (587);null;49.862323;24.051003;UA46060250010015970;79000;Україна;Львівська область;Львівський;Львівська ;Львів;вул. Б. Хмельницького;null;null;0;null;0;null;Europe/Kyiv;null
4677;591;Автостанція №2 (591);null;49.864118;24.05243;UA46060250010015970;79000;Україна;Львівська область;Львівський;Львівська ;Львів;вул. Б. Хмельницького;null;null;0;null;0;null;Europe/Kyiv;null
5055;1001;Винники, Забава (1001);null;49.809057;24.120148;UA46060250010015970;79000;Україна;Львівська область;Львівський;Львівська ;Львів;вул. Б. Хмельницького;null;null;0;null;0;null;Europe/Kyiv;null
4679;588;Височана (588);null;49.85811;24.047269;UA46060250010015970;79000;Україна;Львівська область;Львівський;Львівська ;Львів;вул. Б. Хмельницького;null;null;0;null;0;null;Europe/Kyiv;null
4676;589;Скейт-парк (589);null;49.868626;24.05632;UA46060250010015970;79000;Україна;Львівська область;Львівський;Львівська ;Львів;вул. Б. Хмельницького;212;null;0;null;0;null;Europe/Kyiv;null
4678;590;Радіоринок (590);null;49.861909;24.050477;UA46060250010015970;79000;Україна;Львівська область;Львівський;Львівська ;Львів;вул. Б. Хмельницького;null;null;0;null;0;null;Europe/Kyiv;null
4706;583;Фабрика повидла (583);null;49.856197;24.0458;UA46060250010015970;79000;Україна;Львівська область;Львівський;Львівська ;Львів;вул. Б. Хмельницького;122;null;0;null;0;null;Europe/Kyiv;null
42736;584;Остряниці (584);null;49.85344;24.038427;UA46060250010015970;79000;Україна;Львівська область;Львівський;Львівська ;Львів;вул. Б. Хмельницького;127;null;0;null;0;null;Europe/Kyiv;null
4707;585;Височана (585);null;49.858291;24.047576;UA46060250010015970;79000;Україна;Львівська область;Львівський;Львівська ;Львів;вул. Б. Хмельницького;158;null;0;null;0;null;Europe/Kyiv;null
42753;2;Площа Старий Ринок (2);null;49.847064;24.028693;UA46060250010015970;79000;Україна;Львівська область;Львівський;Львівська ;Львів;вул. Б. Хмельницького;20;null;0;null;0;null;Europe/Kyiv;null
44938;738;Скейт-парк (738);null;49.869439;24.056792;UA46060250010015970;79000;Україна;Львівська область;Львівський;Львівська ;Львів;вул. Б. Хмельницького;257;null;0;null;0;null;Europe/Kyiv;null
5110;592;Назарука (592);null;49.870981;24.058068;UA46060250010015970;79000;Україна;Львівська область;Львівський;Львівська ;Львів;вул. Б. Хмельницького;267;null;0;null;0;null;Europe/Kyiv;null
4563;593;Галицьке перехрестя (593);null;49.873515;24.060214;UA46060250010015970;79000;Україна;Львівська область;Львівський;Львівська ;Львів;вул. Б. Хмельницького;273;null;0;null;0;null;Europe/Kyiv;null
4645;595;Галицьке перехрестя (595);null;49.873225;24.060123;UA46060250010015970;79000;Україна;Львівська область;Львівський;Львівська ;Львів;вул. Б. Хмельницького;286;null;0;null;0;null;Europe/Kyiv;null
42739;579;Залізничний вокзал Підзамче (579);null;49.851868;24.032003;UA46060250010015970;79000;Україна;Львівська область;Львівський;Львівська ;Львів;вул. Б. Хмельницького;52;null;0;null;0;null;Europe/Kyiv;null
4898;312;Залізничний вокзал Підзамче (312);null;49.852179;24.032958;UA46060250010015970;79000;Україна;Львівська область;Львівський;Львівська ;Львів;вул. Б. Хмельницького;56;null;0;null;0;null;Europe/Kyiv;null
42737;580;Остряниці (580);null;49.853163;24.036477;UA46060250010015970;79000;Україна;Львівська область;Львівський;Львівська ;Львів;вул. Б. Хмельницького;80;null;0;null;0;null;Europe/Kyiv;null
42738;581;Залізничний вокзал Підзамче (581);null;49.852392;24.033298;UA46060250010015970;79000;Україна;Львівська область;Львівський;Львівська ;Львів;вул. Б. Хмельницького;87;null;0;null;0;null;Europe/Kyiv;null
4975;854;Барвінських (854);null;49.844165;24.044062;UA46060250010015970;79000;Україна;Львівська область;Львівський;Львівська ;Львів;вул. Барвінських;null;вул. М. Лисенка, 31;0;null;0;null;Europe/Kyiv;null
z-860;860;На вимогу (860);null;49.8444864;23.9544329;UA46060250010015970;79000;Україна;Львівська область;Львівський;Львівська ;Львів;вул. Білогорща;null; вул. Роксоляни, 149;0;null;0;null;Europe/Kyiv;null
z-861;861;На вимогу (861);null;49.8443905;23.9546877;UA46060250010015970;79000;Україна;Львівська область;Львівський;Львівська ;Львів;вул. Білогорща;149;навпроти вул. Роксоляни, 149;0;null;0;null;Europe/Kyiv;null
5048;92;Лаврівського (92);null;49.845062;23.93271;UA46060250010015970;79000;Україна;Львівська область;Львівський;Львівська ;Львів;вул. Білогорща;144;null;0;null;0;null;Europe/Kyiv;null
5042;87;Народний дім Білогорща (87);null;49.844416;23.93801;UA46060250010015970;79000;Україна;Львівська область;Львівський;Львівська ;Львів;вул. Білогорща;25;null;0;null;0;null;Europe/Kyiv;null
5041;89;Лаврівського (89);null;49.844967;23.932509;UA46060250010015970;79000;Україна;Львівська область;Львівський;Львівська ;Львів;вул. Білогорща;57;null;0;null;0;null;Europe/Kyiv;null
5173;90-01;Білогорща (90-01);null;49.845825;23.929483;UA46060250010015970;79000;Україна;Львівська область;Львівський;Львівська ;Львів;вул. Білогорща;71;null;0;null;0;null;Europe/Kyiv;null
4705;582;Промислова (582);null;49.853732;24.041782;UA46060250010015970;79000;Україна;Львівська область;Львівський;Львівська ;Львів;вул. Б. Хмельницького;149;null;0;null;0;null;Europe/Kyiv;null
2562712;345;Пластова (345);null;49.859337;24.072303;UA46060250010015970;79000;Україна;Львівська область;Львівський;Львівська ;Львів;вул. Богданівська;null;null;0;null;0;null;Europe/Kyiv;null
2562713;346;Пластова (346);null;49.859695;24.071957;UA46060250010015970;79000;Україна;Львівська область;Львівський;Львівська ;Львів;вул. Богданівська;null;null;0;null;0;null;Europe/Kyiv;null
4921;201;Старознесенська (201);null;49.849194;24.083147;UA46060250010015970;79000;Україна;Львівська область;Львівський;Львівська ;Львів;вул. Богданівська;null;вул. Старознесенська, 161;0;null;0;null;Europe/Kyiv;null
4936;202;Старознесенська (202);null;49.848987;24.083217;UA46060250010015970;79000;Україна;Львівська область;Львівський;Львівська ;Львів;вул. Богданівська;null;вул. Старознесенська, 192;0;null;0;null;Europe/Kyiv;null
4920;203;Гайдучка (203);null;49.852854;24.077547;UA46060250010015970;79000;Україна;Львівська область;Львівський;Львівська ;Львів;вул. Богданівська;100;навпроти №100;0;null;0;null;Europe/Kyiv;null
2560926;309;Гаврилишина (309);null;49.84336;24.08614;UA46060250010015970;79000;Україна;Львівська область;Львівський;Львівська ;Львів;вул. Богданівська;2;навпроти вул. вул. Богдана Гаврилишина, 2;0;null;0;null;Europe/Kyiv;null
4937;204;Гайдучка (204);null;49.853231;24.077375;UA46060250010015970;79000;Україна;Львівська область;Львівський;Львівська ;Львів;вул. Богданівська;null;перехрестя з вул. С.Гайдучка;0;null;0;null;Europe/Kyiv;null
2560925;308;Гаврилишина (308);null;49.843168;24.086237;UA46060250010015970;79000;Україна;Львівська область;Львівський;Львівська ;Львів;вул. Богданівська;null;null;0;null;0;null;Europe/Kyiv;null
2560991;732;Монгольська (732);null;49.850651;24.079408;UA46060250010015970;79000;Україна;Львівська область;Львівський;Львівська ;Львів;вул. Богданівська;135;навпроти №135;0;null;0;null;Europe/Kyiv;null
4919;199;Авторинок (199);null;49.854618;24.076294;UA46060250010015970;79000;Україна;Львівська область;Львівський;Львівська ;Львів;вул. Богданівська;11;null;0;null;0;null;Europe/Kyiv;null
2560988;731;Монгольська (731);null;49.850751;24.079086;UA46060250010015970;79000;Україна;Львівська область;Львівський;Львівська ;Львів;вул. Богданівська;135;null;0;null;0;null;Europe/Kyiv;null
4935;198;Богданівська (198);null;49.84048;24.085695;UA46060250010015970;79000;Україна;Львівська область;Львівський;Львівська ;Львів;вул. Богданівська;2;null;0;null;0;null;Europe/Kyiv;null
4938;200;Авторинок (200);null;49.854268;24.076785;UA46060250010015970;79000;Україна;Львівська область;Львівський;Львівська ;Львів;вул. Богданівська;42;null;0;null;0;null;Europe/Kyiv;null
z-720;720;Фанерний завод (720);null;49.86474;23.969067;UA46060250010015970;79000;Україна;Львівська область;Львівський;Львівська ;Львів;вул. Брюховицька;37;навпроти №37;0;null;0;null;Europe/Kyiv;null
z-719;719;Фанерний завод (719);null;49.86477;23.968874;UA46060250010015970;79000;Україна;Львівська область;Львівський;Львівська ;Львів;вул. Брюховицька;37;null;0;null;0;null;Europe/Kyiv;null
z-0722;0722;Школа №94 (0722);null;49.872734;23.957598;UA46060250010015970;79000;Україна;Львівська область;Львівський;Львівська ;Львів;вул. Брюховицька;103;null;0;null;0;null;Europe/Kyiv;null
z-723;723;Малковицька (723);null;49.873868;23.951553;UA46060250010015970;79000;Україна;Львівська область;Львівський;Львівська ;Львів;вул. Брюховицька;196;null;0;null;0;null;Europe/Kyiv;null
z-721;721;Школа №94 (721);null;49.872726;23.958171;UA46060250010015970;79000;Україна;Львівська область;Львівський;Львівська ;Львів;вул. Брюховицька;94;null;0;null;0;null;Europe/Kyiv;null
44234;736;Коледж телекомунікацій (736);null;49.80959;24.008761;UA46060250010015970;79000;Україна;Львівська область;Львівський;Львівська ;Львів;вул. Володимира Великого;27;null;0;null;0;null;Europe/Kyiv;null
2562811;851;Підвальна (851);null;49.842491;24.036182;UA46060250010015970;79000;Україна;Львівська область;Львівський;Львівська ;Львів;вул. В. Винниченка;22;null;0;null;0;null;Europe/Kyiv;null
4660;1053;Брюховичі, Арктична (1053);null;49.9012;23.935926;UA46060250040091928;79491;Україна;Львівська область;Львівський;Львівська ;Брюховичі;вул. В. Івасюка;19;null;0;null;0;null;Europe/Kyiv;null
4789;602;Замарстинівська (602);null;49.85965;24.026139;UA46060250010015970;79000;Україна;Львівська область;Львівський;Львівська ;Львів;вул. В. Липинського;null;вул. Покутська, 1;0;null;0;null;Europe/Kyiv;null
4778;603;Бетховена (603);null;49.863391;24.032652;UA46060250010015970;79000;Україна;Львівська область;Львівський;Львівська ;Львів;вул. В. Липинського;3;навпроти №36;0;null;0;null;Europe/Kyiv;null
4787;604;БТІ (604);null;49.86492;24.040645;UA46060250010015970;79000;Україна;Львівська область;Львівський;Львівська ;Львів;вул. В. Липинського;54;навпроти №54;0;null;0;null;Europe/Kyiv;null
4786;607;Миколайчука (607);null;49.865214;24.043638;UA46060250010015970;79000;Україна;Львівська область;Львівський;Львівська ;Львів;вул. В. Липинського;null;перехрестя з вул. І. Миколайчука;0;null;0;null;Europe/Kyiv;null
4777;598;Замарстинівська (598);null;49.860559;24.027472;UA46060250010015970;79000;Україна;Львівська область;Львівський;Львівська ;Львів;вул. В. Липинського;26;null;0;null;0;null;Europe/Kyiv;null
4788;599;Бетховена (599);null;49.863678;24.033671;UA46060250010015970;79000;Україна;Львівська область;Львівський;Львівська ;Львів;вул. В. Липинського;44;null;0;null;0;null;Europe/Kyiv;null
4790;596;Окуневського (596);null;49.856216;24.019434;UA46060250010015970;79000;Україна;Львівська область;Львівський;Львівська ;Львів;вул. В. Липинського;5;null;0;null;0;null;Europe/Kyiv;null
4779;600;БТІ (600);null;49.864989;24.042442;UA46060250010015970;79000;Україна;Львівська область;Львівський;Львівська ;Львів;вул. В. Липинського;54;null;0;null;0;null;Europe/Kyiv;null
4776;597;Шевченківська РА (597);null;49.857499;24.023241;UA46060250010015970;79000;Україна;Львівська область;Львівський;Львівська ;Львів;вул. В. Липинського;12;null;0;null;0;null;Europe/Kyiv;null
4780;601;Автостанція №2 (601);null;49.865131;24.050676;UA46060250010015970;79000;Україна;Львівська область;Львівський;Львівська ;Львів;вул. В. Липинського;60;null;0;null;0;null;Europe/Kyiv;null
4785;605;Автостанція №2 (605);null;49.864954;24.051669;UA46060250010015970;79000;Україна;Львівська область;Львівський;Львівська ;Львів;вул. В. Липинського;60;null;0;null;0;null;Europe/Kyiv;null
5009;356;Лікарня Святого Луки (356);null;49.811328;24.050435;UA46060250010015970;79000;Україна;Львівська область;Львівський;Львівська ;Львів;вул. В. Навроцького;21;null;0;null;0;null;Europe/Kyiv;null
5013;355;Лікарня Святого Луки (355);null;49.811232;24.050529;UA46060250010015970;79000;Україна;Львівська область;Львівський;Львівська ;Львів;вул. В. Навроцького;4;null;0;null;0;null;Europe/Kyiv;null
z-358;358;Литвиненка (358);null;49.813803;24.044217;UA46060250010015970;79000;Україна;Львівська область;Львівський;Львівська ;Львів;вул. В. Стуса;null;вул. Д. Карбишева, 8;0;null;0;null;Europe/Kyiv;null
z-5;5;Стадіон Україна (5);null;49.817951;24.043984;UA46060250010015970;79000;Україна;Львівська область;Львівський;Львівська ;Львів;вул. В. Стуса;22а;null;0;null;0;null;Europe/Kyiv;null
z-357;357;Стадіон Україна (357);null;49.818322;24.043842;UA46060250010015970;79000;Україна;Львівська область;Львівський;Львівська ;Львів;вул. В. Стуса;49;null;0;null;0;null;Europe/Kyiv;null
4793;627;Панча (627);null;49.862171;24.007643;UA46060250010015970;79000;Україна;Львівська область;Львівський;Львівська ;Львів;вул. Варшавська;null;вул. П. Панча, 26;0;null;0;null;Europe/Kyiv;null
44162;739;Голоско (739);null;49.86929;24.018087;UA46060250010015970;79000;Україна;Львівська область;Львівський;Львівська ;Львів;вул. Варшавська;null;навпроти вул. Ф. Сеньковича, 40;0;null;0;null;Europe/Kyiv;null
5021;624;Школа № 23 (624);null;49.86548;24.011159;UA46060250010015970;79000;Україна;Львівська область;Львівський;Львівська ;Львів;вул. Варшавська;126;null;0;null;0;null;Europe/Kyiv;null
2560972;812;Малоголосківська (812);null;49.864484;24.007337;UA46060250010015970;79000;Україна;Львівська область;Львівський;Львівська ;Львів;вул. Варшавська;114;null;0;null;0;null;Europe/Kyiv;null
2560973;813;Малоголосківська (813);null;49.864885;24.008217;UA46060250010015970;79000;Україна;Львівська область;Львівський;Львівська ;Львів;вул. Варшавська;133;null;0;null;0;null;Europe/Kyiv;null
5136;625;Школа № 23 (625);null;49.865506;24.010899;UA46060250010015970;79000;Україна;Львівська область;Львівський;Львівська ;Львів;вул. Варшавська;155;null;0;null;0;null;Europe/Kyiv;null
45041;621;Бальзака (621);null;49.855064;24.014472;UA46060250010015970;79000;Україна;Львівська область;Львівський;Львівська ;Львів;вул. Варшавська;2;null;0;null;0;null;Europe/Kyiv;null
4638;614;Голоско (614);null;49.869786;24.018423;UA46060250010015970;79000;Україна;Львівська область;Львівський;Львівська ;Львів;вул. Варшавська;29;null;0;null;0;null;Europe/Kyiv;null
45105;197;Погулянка (197);null;49.829772;24.056057;UA46060250010015970;79000;Україна;Львівська область;Львівський;Львівська ;Львів;вул. А. Вахнянина;27;null;0;null;0;null;Europe/Kyiv;null
4721;125;Поліклініка №5 (125);null;49.826297;23.967919;UA46060250010015970;79000;Україна;Львівська область;Львівський;Львівська ;Львів;вул. І. Виговського;17;null;0;null;0;null;Europe/Kyiv;null
4719;128;Любінська-Виговського (128);null;49.819621;23.969861;UA46060250010015970;79000;Україна;Львівська область;Львівський;Львівська ;Львів;вул. І. Виговського;41;null;0;null;0;null;Europe/Kyiv;null
4718;129;Скнилівський парк (129);null;49.816714;23.97235;UA46060250010015970;79000;Україна;Львівська область;Львівський;Львівська ;Львів;вул. І. Виговського;47;null;0;null;0;null;Europe/Kyiv;null
4717;130;Південний (130);null;49.813671;23.976856;UA46060250010015970;79000;Україна;Львівська область;Львівський;Львівська ;Львів;вул. І. Виговського;69;null;0;null;0;null;Europe/Kyiv;null
4775;629;Ковча (629);null;49.854037;23.986405;UA46060250010015970;79000;Україна;Львівська область;Львівський;Львівська ;Львів;вул. Винниця;null;вул. Т. Шевченка, 154;0;null;0;null;Europe/Kyiv;null
44255;777;Петрицького (777);null;49.86174;23.999736;UA46060250010015970;79000;Україна;Львівська область;Львівський;Львівська ;Львів;вул. Винниця;2;null;0;null;0;null;Europe/Kyiv;null
45021;762;Винниця (762);null;49.862057;23.993744;UA46060250010015970;79000;Україна;Львівська область;Львівський;Львівська ;Львів;вул. Винниця;42;null;0;null;0;null;Europe/Kyiv;null
4749;761;Винниця (761);null;49.861863;23.99193;UA46060250010015970;79000;Україна;Львівська область;Львівський;Львівська ;Львів;вул. Винниця;60;null;0;null;0;null;Europe/Kyiv;null
44256;778;Петрицького (778);null;49.861477;24.000374;UA46060250010015970;79000;Україна;Львівська область;Львівський;Львівська ;Львів;вул. Винниця;7;null;0;null;0;null;Europe/Kyiv;null
44965;362;Віденська (362);null;49.812179;24.04212;UA46060250010015970;79000;Україна;Львівська область;Львівський;Львівська ;Львів;вул. Віденська;6а;null;0;null;0;null;Europe/Kyiv;null
z-833;833;Віри, Надії, Любові (833);null;49.876336;24.03642;UA46060250010015970;79000;Україна;Львівська область;Львівський;Львівська ;Львів;вул. Віри, Надії, Любові;3;навпроти №3;0;null;0;null;Europe/Kyiv;null
z-835;835;Щурата (835);null;49.879517;24.035795;UA46060250010015970;79000;Україна;Львівська область;Львівський;Львівська ;Львів;вул. Віри, Надії, Любові;null;навпроти вул. І. Миколайчука, 28;0;null;0;null;Europe/Kyiv;null
2562632;834;Щурата (834);null;49.878791;24.036621;UA46060250010015970;79000;Україна;Львівська область;Львівський;Львівська ;Львів;вул. Віри, Надії, Любові;null;навпроти вул. І. Миколайчука, 28;0;null;0;null;Europe/Kyiv;null
z-643;643;Віри, Надії, Любові (643);null;49.877214;24.036305;UA46060250010015970;79000;Україна;Львівська область;Львівський;Львівська ;Львів;вул. Віри, Надії, Любові;10;null;0;null;0;null;Europe/Kyiv;null
5127;665;Віри, Надії, Любові (665);null;49.876329;24.036399;UA46060250010015970;79000;Україна;Львівська область;Львівський;Львівська ;Львів;вул. Віри, Надії, Любові;3;null;0;null;0;null;Europe/Kyiv;null
4686;486;Океан (486);null;49.810497;23.998132;UA46060250010015970;79000;Україна;Львівська область;Львівський;Львівська ;Львів;вул. Володимира Великого;null;вул. Княгині Ольги, 106;0;null;0;null;Europe/Kyiv;null
4688;480;Янева (480);null;49.808856;24.012052;UA46060250010015970;79000;Україна;Львівська область;Львівський;Львівська ;Львів;вул. Володимира Великого;21;null;0;null;0;null;Europe/Kyiv;null
4687;483;Володимира Великого (483);null;49.809971;24.004725;UA46060250010015970;79000;Україна;Львівська область;Львівський;Львівська ;Львів;вул. Володимира Великого;35;null;0;null;0;null;Europe/Kyiv;null
4685;485;Куровця (485);null;49.811148;23.991673;UA46060250010015970;79000;Україна;Львівська область;Львівський;Львівська ;Львів;вул. Володимира Великого;111;null;0;null;0;null;Europe/Kyiv;null
4697;479;Коледж телекомунікацій (479);null;49.809964;24.007037;UA46060250010015970;79000;Україна;Львівська область;Львівський;Львівська ;Львів;вул. Володимира Великого;12;null;0;null;0;null;Europe/Kyiv;null
4698;481;Володимира Великого (481);null;49.810341;24.001104;UA46060250010015970;79000;Україна;Львівська область;Львівський;Львівська ;Львів;вул. Володимира Великого;22;null;0;null;0;null;Europe/Kyiv;null
4699;482;Океан (482);null;49.810791;23.996603;UA46060250010015970;79000;Україна;Львівська область;Львівський;Львівська ;Львів;вул. Володимира Великого;22;null;0;null;0;null;Europe/Kyiv;null
4700;484;Куровця (484);null;49.81144;23.990131;UA46060250010015970;79000;Україна;Львівська область;Львівський;Львівська ;Львів;вул. Володимира Великого;50;null;0;null;0;null;Europe/Kyiv;null
2560974;814;Янева (814);null;49.808988;24.011889;UA46060250010015970;79000;Україна;Львівська область;Львівський;Львівська ;Львів;вул. Володимира Великого;8а;null;0;null;0;null;Europe/Kyiv;null
z-9;9;Стрийський ринок (9);null;49.829566;24.032593;UA46060250010015970;79000;Україна;Львівська область;Львівський;Львівська ;Львів;вул. Волоська;13;null;0;null;0;null;Europe/Kyiv;null
44169;310;Хоткевича (310);null;49.79464;24.044582;UA46060250010015970;79000;Україна;Львівська область;Львівський;Львівська ;Львів;вул. Г. Хоткевича;34;null;0;null;0;null;Europe/Kyiv;null
5075;360;Річка Зубра (360);null;49.796471;24.039432;UA46060250010015970;79000;Україна;Львівська область;Львівський;Львівська ;Львів;вул. Г. Хоткевича;62;null;0;null;0;null;Europe/Kyiv;null
44168;322;Данилюка (322);null;49.798217;24.039127;UA46060250010015970;79000;Україна;Львівська область;Львівський;Львівська ;Львів;вул. Г. Хоткевича;68;null;0;null;0;null;Europe/Kyiv;null
42747;630;Гайдамацька (630);null;49.852013;24.029347;UA46060250010015970;79000;Україна;Львівська область;Львівський;Львівська ;Львів;вул. Гайдамацька;2а;null;0;null;0;null;Europe/Kyiv;null
5105;1002;Винники, ЦНАП (1002);null;49.817237;24.130467;UA46060250020038547;79495;Україна;Львівська область;Львівський;Львівська ;Винники;вул. Галицька;1;null;0;null;0;null;Europe/Kyiv;null
5101;1003;Винники, ЦНАП (1003);null;49.817673;24.130574;UA46060250020038547;79495;Україна;Львівська область;Львівський;Львівська ;Винники;вул. Галицька;12;null;0;null;0;null;Europe/Kyiv;null
5112;489;Фабрика Левинського (489);null;49.83072;24.008705;UA46060250010015970;79000;Україна;Львівська область;Львівський;Львівська ;Львів;вул. Генерала Т. Чупринки;64;null;0;null;0;null;Europe/Kyiv;null
5107;487;Київська (487);null;49.831915;24.011191;UA46060250010015970;79000;Україна;Львівська область;Львівський;Львівська ;Львів;вул. Генерала Т. Чупринки;27;null;0;null;0;null;Europe/Kyiv;null
5111;488;Київська (488);null;49.832436;24.012133;UA46060250010015970;79000;Україна;Львівська область;Львівський;Львівська ;Львів;вул. Генерала Т. Чупринки;36;null;0;null;0;null;Europe/Kyiv;null
5106;490;Фабрика Левинського (490);null;49.830225;24.007981;UA46060250010015970;79000;Україна;Львівська область;Львівський;Львівська ;Львів;вул. Генерала Т. Чупринки;55а;null;0;null;0;null;Europe/Kyiv;null
5108;11;Львівська політехніка (11);null;49.834481;24.01621;UA46060250010015970;79000;Україна;Львівська область;Львівський;Львівська ;Львів;вул. Генерала Т. Чупринки;4;null;0;null;0;null;Europe/Kyiv;null
4581;491;Площа Берестейської унії (491);null;49.833356;24.001318;UA46060250010015970;79000;Україна;Львівська область;Львівський;Львівська ;Львів;вул. Героїв УПА;30;null;0;null;0;null;Europe/Kyiv;null
4582;492;Смаль-Стоцького (492);null;49.830564;23.995525;UA46060250010015970;79000;Україна;Львівська область;Львівський;Львівська ;Львів;вул. Героїв УПА;76;null;0;null;0;null;Europe/Kyiv;null
4583;493;Копистинського (493);null;49.829066;23.992118;UA46060250010015970;79000;Україна;Львівська область;Львівський;Львівська ;Львів;вул. Героїв УПА;80;null;0;null;0;null;Europe/Kyiv;null
4639;636;Мазепи (636);null;49.869354;24.025018;UA46060250010015970;79000;Україна;Львівська область;Львівський;Львівська ;Львів;вул. Гетьмана І. Мазепи;null;null;0;null;0;null;Europe/Kyiv;null
4640;631;Орлика (631);null;49.870628;24.032566;UA46060250010015970;79000;Україна;Львівська область;Львівський;Львівська ;Львів;вул. Гетьмана І. Мазепи;23;null;0;null;0;null;Europe/Kyiv;null
4569;637;Мазепи (637);null;49.869529;24.025372;UA46060250010015970;79000;Україна;Львівська область;Львівський;Львівська ;Львів;вул. Гетьмана І. Мазепи;1;null;0;null;0;null;Europe/Kyiv;null
4568;638;Орлика (638);null;49.870518;24.031278;UA46060250010015970;79000;Україна;Львівська область;Львівський;Львівська ;Львів;вул. Гетьмана І. Мазепи;13;null;0;null;0;null;Europe/Kyiv;null
4567;632;Ребілітаційний центр Незламні (632);null;49.871788;24.039196;UA46060250010015970;79000;Україна;Львівська область;Львівський;Львівська ;Львів;вул. Гетьмана І. Мазепи;25;null;0;null;0;null;Europe/Kyiv;null
4641;633;Ребілітаційний центр Незламні (633);null;49.871743;24.03947;UA46060250010015970;79000;Україна;Львівська область;Львівський;Львівська ;Львів;вул. Гетьмана І. Мазепи;22;null;0;null;0;null;Europe/Kyiv;null
4642;635;Плугова (635);null;49.872393;24.043295;UA46060250010015970;79000;Україна;Львівська область;Львівський;Львівська ;Львів;вул. Гетьмана І. Мазепи;32;null;0;null;0;null;Europe/Kyiv;null
5027;212;Провесінь (212);null;49.842186;24.10307;UA46060250010015970;79000;Україна;Львівська область;Львівський;Львівська ;Львів;вул. Тракт Глинянський ;165;навпроти №165;0;null;0;null;Europe/Kyiv;null
4922;213;Богданівська (213);null;49.839982;24.083936;UA46060250010015970;79000;Україна;Львівська область;Львівський;Львівська ;Львів;вул. Тракт Глинянський ;64;навпроти №64;0;null;0;null;Europe/Kyiv;null
4970;208;Глинянський Тракт (208);null;49.842016;24.100941;UA46060250010015970;79000;Україна;Львівська область;Львівський;Львівська ;Львів;вул. Тракт Глинянський ;161;null;0;null;0;null;Europe/Kyiv;null
4968;205;Богданівська (205);null;49.840217;24.086154;UA46060250010015970;79000;Україна;Львівська область;Львівський;Львівська ;Львів;вул. Тракт Глинянський ;74;null;0;null;0;null;Europe/Kyiv;null
44943;206;Бігова (206);null;49.841304;24.096598;UA46060250010015970;79000;Україна;Львівська область;Львівський;Львівська ;Львів;вул. Тракт Глинянський ;136;null;0;null;0;null;Europe/Kyiv;null
44941;207;Бігова (207);null;49.841401;24.096727;UA46060250010015970;79000;Україна;Львівська область;Львівський;Львівська ;Львів;вул. Тракт Глинянський ;141;null;0;null;0;null;Europe/Kyiv;null
4971;209;Провесінь (209);null;49.842293;24.103553;UA46060250010015970;79000;Україна;Львівська область;Львівський;Львівська ;Львів;вул. Тракт Глинянський ;165;null;0;null;0;null;Europe/Kyiv;null
5074;743;Річка Зубра (743);null;49.796573;24.039197;UA46060250010015970;79000;Україна;Львівська область;Львівський;Львівська ;Львів;вул. Г. Хоткевича;62;null;0;null;0;null;Europe/Kyiv;null
z-461;461;Низинна (461);null;49.839681;23.969555;UA46060250010015970;79000;Україна;Львівська область;Львівський;Львівська ;Львів;вул. Я. Гніздовського;1;null;0;null;0;null;Europe/Kyiv;null
2560945;460;Низинна (460);null;49.83918;23.969561;UA46060250010015970;79000;Україна;Львівська область;Львівський;Львівська ;Львів;вул. Я. Гніздовського;4;null;0;null;0;null;Europe/Kyiv;null
4682;110;Привокзальний ринок (110);null;49.836381;23.999189;UA46060250010015970;79000;Україна;Львівська область;Львівський;Львівська ;Львів;вул. Городоцька;155;навпроти №155;0;null;0;null;Europe/Kyiv;null
4683;113;Скриня (113);null;49.835592;23.994693;UA46060250010015970;79000;Україна;Львівська область;Львівський;Львівська ;Львів;вул. Городоцька;175;навпроти №175;0;null;0;null;Europe/Kyiv;null
4731;498;Богданівка (498);null;49.832495;23.978396;UA46060250010015970;79000;Україна;Львівська область;Львівський;Львівська ;Львів;вул. Городоцька;225;навпроти №225;0;null;0;null;Europe/Kyiv;null
4945;95;Кульпарківська (95);null;49.834412;23.989221;UA46060250010015970;79000;Україна;Львівська область;Львівський;Львівська ;Львів;вул. Городоцька;128;null;0;null;0;null;Europe/Kyiv;null
4730;96;Народна (96);null;49.83372;23.985279;UA46060250010015970;79000;Україна;Львівська область;Львівський;Львівська ;Львів;вул. Городоцька;134;null;0;null;0;null;Europe/Kyiv;null
4703;494;Скриня (494);null;49.835346;23.99509;UA46060250010015970;79000;Україна;Львівська область;Львівський;Львівська ;Львів;вул. Городоцька;175;null;0;null;0;null;Europe/Kyiv;null
4725;496;Кульпарківська (496);null;49.834519;23.990198;UA46060250010015970;79000;Україна;Львівська область;Львівський;Львівська ;Львів;вул. Городоцька;189;null;0;null;0;null;Europe/Kyiv;null
4724;497;Народна (497);null;49.833516;23.984562;UA46060250010015970;79000;Україна;Львівська область;Львівський;Львівська ;Львів;вул. Городоцька;207;null;0;null;0;null;Europe/Kyiv;null
z-744;744;Приміський вокзал (744);null;49.836344;23.99969;UA46060250010015970;79000;Україна;Львівська область;Львівський;Львівська ;Львів;вул. Городоцька;153;null;0;null;0;null;Europe/Kyiv;null
z-745;745;Приміський вокзал (745);null;49.836323;23.999913;UA46060250010015970;79000;Україна;Львівська область;Львівський;Львівська ;Львів;вул. Городоцька;153;null;0;null;0;null;Europe/Kyiv;null
44814;749;Привокзальний ринок (749);null;49.836125;23.999162;UA46060250010015970;79000;Україна;Львівська область;Львівський;Львівська ;Львів;вул. Городоцька;155;null;0;null;0;null;Europe/Kyiv;null
5022;97;Мотозавод (97);null;49.830474;23.966905;UA46060250010015970;79000;Україна;Львівська область;Львівський;Львівська ;Львів;вул. Городоцька;174;null;0;null;0;null;Europe/Kyiv;null
5023;98;Вівсяна (98);null;49.829734;23.962866;UA46060250010015970;79000;Україна;Львівська область;Львівський;Львівська ;Львів;вул. Городоцька;210;null;0;null;0;null;Europe/Kyiv;null
5024;99;Вільхова (99);null;49.828633;23.956949;UA46060250010015970;79000;Україна;Львівська область;Львівський;Львівська ;Львів;вул. Городоцька;222;null;0;null;0;null;Europe/Kyiv;null
4723;114;Богданівка (114);null;49.832543;23.979179;UA46060250010015970;79000;Україна;Львівська область;Львівський;Львівська ;Львів;вул. Городоцька;223;null;0;null;0;null;Europe/Kyiv;null
4835;115;Каховська (115);null;49.826768;23.946521;UA46060250010015970;79000;Україна;Львівська область;Львівський;Львівська ;Львів;вул. Городоцька;236;null;0;null;0;null;Europe/Kyiv;null
4722;100;Мотозавод (100);null;49.830834;23.969448;UA46060250010015970;79000;Україна;Львівська область;Львівський;Львівська ;Львів;вул. Городоцька;249;null;0;null;0;null;Europe/Kyiv;null
4631;14;Наливайка (14);null;49.84311;24.022197;UA46060250010015970;79000;Україна;Львівська область;Львівський;Львівська ;Львів;вул. Городоцька;27;null;0;null;0;null;Europe/Kyiv;null
5020;101;Вівсяна (101);null;49.829965;23.964658;UA46060250010015970;79000;Україна;Львівська область;Львівський;Львівська ;Львів;вул. Городоцька;273;null;0;null;0;null;Europe/Kyiv;null
4836;102;Станційна (102);null;49.823482;23.928912;UA46060250010015970;79000;Україна;Львівська область;Львівський;Львівська ;Львів;вул. Городоцька;282;null;0;null;0;null;Europe/Kyiv;null
44953;103;Азов-Галичина (103);null;49.822646;23.924167;UA46060250010015970;79000;Україна;Львівська область;Львівський;Львівська ;Львів;вул. Городоцька;284;null;0;null;0;null;Europe/Kyiv;null
5019;104;Вільхова (104);null;49.828834;23.958516;UA46060250010015970;79000;Україна;Львівська область;Львівський;Львівська ;Львів;вул. Городоцька;293;null;0;null;0;null;Europe/Kyiv;null
44954;105;Автостанція Західна (105);null;49.821535;23.918175;UA46060250010015970;79000;Україна;Львівська область;Львівський;Львівська ;Львів;вул. Городоцька;300;null;0;null;0;null;Europe/Kyiv;null
4959;316;Епіцентр (316);null;49.824204;23.910241;UA46060250010015970;79000;Україна;Львівська область;Львівський;Львівська ;Львів;вул. Городоцька;302;null;0;null;0;null;Europe/Kyiv;null
4841;116;Каховська (116);null;49.8271;23.949187;UA46060250010015970;79000;Україна;Львівська область;Львівський;Львівська ;Львів;вул. Городоцька;319а;null;0;null;0;null;Europe/Kyiv;null
44952;106;Станційна (106);null;49.823626;23.930706;UA46060250010015970;79000;Україна;Львівська область;Львівський;Львівська ;Львів;вул. Городоцька;355;null;0;null;0;null;Europe/Kyiv;null
44951;107;Азов-Галичина (107);null;49.822622;23.925288;UA46060250010015970;79000;Україна;Львівська область;Львівський;Львівська ;Львів;вул. Городоцька;357;null;0;null;0;null;Europe/Kyiv;null
44950;108;Автостанція Західна (108);null;49.821677;23.920106;UA46060250010015970;79000;Україна;Львівська область;Львівський;Львівська ;Львів;вул. Городоцька;359;null;0;null;0;null;Europe/Kyiv;null
44949;109;Городоцька-Кільцева (109);null;49.821061;23.916695;UA46060250010015970;79000;Україна;Львівська область;Львівський;Львівська ;Львів;вул. Городоцька;367;null;0;null;0;null;Europe/Kyiv;null
4629;15;Цирк (15);null;49.840197;24.012256;UA46060250010015970;79000;Україна;Львівська область;Львівський;Львівська ;Львів;вул. Городоцька;42;null;0;null;0;null;Europe/Kyiv;null
4578;17;Цирк (17);null;49.84028;24.012181;UA46060250010015970;79000;Україна;Львівська область;Львівський;Львівська ;Львів;вул. Городоцька;44;null;0;null;0;null;Europe/Kyiv;null
4630;16;Церква святої Анни (16);null;49.841939;24.016604;UA46060250010015970;79000;Україна;Львівська область;Львівський;Львівська ;Львів;вул. Городоцька;67;null;0;null;0;null;Europe/Kyiv;null
4878;13;Магнус (13);null;49.843935;24.024104;UA46060250010015970;79000;Україна;Львівська область;Львівський;Львівська ;Львів;вул. Городоцька;8;null;0;null;0;null;Europe/Kyiv;null
4579;94;Площа Кропивницького (94);null;49.837706;24.005567;UA46060250010015970;79000;Україна;Львівська область;Львівський;Львівська ;Львів;вул. Городоцька;94;null;0;null;0;null;Europe/Kyiv;null
4628;18;Площа Кропивницького (18);null;49.837422;24.004907;UA46060250010015970;79000;Україна;Львівська область;Львівський;Львівська ;Львів;вул. Городоцька;98;null;0;null;0;null;Europe/Kyiv;null
4947;315;Епіцентр (315);null;49.824453;23.910273;UA46060250010015970;79000;Україна;Львівська область;Львівський;Львівська ;Львів;вул. Городоцька;302;null;0;null;0;null;Europe/Kyiv;null
5161;19;Парк культури (19);null;49.830253;24.023296;UA46060250010015970;79000;Україна;Львівська область;Львівський;Львівська ;Львів;вул. Д. Вітовського;null;вхід до парку;0;null;0;null;Europe/Kyiv;null
4984;20;Парк культури (20);null;49.830242;24.023838;UA46060250010015970;79000;Україна;Львівська область;Львівський;Львівська ;Львів;вул. Д. Вітовського;41;навпроти №41;0;null;0;null;Europe/Kyiv;null
2560957;831;Львівтеплоенерго (831);null;49.830339;23.950281;UA46060250010015970;79000;Україна;Львівська область;Львівський;Львівська ;Львів;вул. Данила Апостола;9;null;0;null;0;null;Europe/Kyiv;null
2560958;832;Сервісний центр МВС (832);null;49.83099;23.945421;UA46060250010015970;79000;Україна;Львівська область;Львівський;Львівська ;Львів;вул. Данила Апостола;9а;null;0;null;0;null;Europe/Kyiv;null
z-53;53;Магнус (53);null;49.844431;24.023275;UA46060250010015970;79000;Україна;Львівська область;Львівський;Львівська ;Львів;вул. Д. Данилишина;9;null;0;null;0;null;Europe/Kyiv;null
5008;216;Вашингтона (216);null;49.815984;24.062746;UA46060250010015970;79000;Україна;Львівська область;Львівський;Львівська ;Львів;вул. Дж. Вашингтона;null;навпроти вул. Зелена, 147;0;null;0;null;Europe/Kyiv;null
4927;214;ТЦ Метро-2 (214);null;49.814485;24.075991;UA46060250010015970;79000;Україна;Львівська область;Львівський;Львівська ;Львів;вул. Дж. Вашингтона;21;null;0;null;0;null;Europe/Kyiv;null
4928;215;Перинатальний центр (215);null;49.816146;24.069323;UA46060250010015970;79000;Україна;Львівська область;Львівський;Львівська ;Львів;вул. Дж. Вашингтона;5а;null;0;null;0;null;Europe/Kyiv;null
4862;363;Перинатальний центр (363);null;49.815714;24.070434;UA46060250010015970;79000;Україна;Львівська область;Львівський;Львівська ;Львів;вул. Дж. Вашингтона;6;null;0;null;0;null;Europe/Kyiv;null
5014;364;ТЦ Метро-2 (364);null;49.814447;24.07532;UA46060250010015970;79000;Україна;Львівська область;Львівський;Львівська ;Львів;вул. Дж. Вашингтона;8;null;0;null;0;null;Europe/Kyiv;null
5122;368;Дунайська (368);null;49.816631;24.050553;UA46060250010015970;79000;Україна;Львівська область;Львівський;Львівська ;Львів;вул. Дністерська;16а;null;0;null;0;null;Europe/Kyiv;null
5183;367;Лікарня Святого Луки (367);null;49.814121;24.050928;UA46060250010015970;79000;Україна;Львівська область;Львівський;Львівська ;Львів;вул. Дністерська;22;null;0;null;0;null;Europe/Kyiv;null
z-858;858;Долішня (858);null;49.8366273;24.0662644;UA46060250010015970;79000;Україна;Львівська область;Львівський;Львівська ;Львів;вул. Долішня;null;вул. Личаківська, 175;0;null;0;null;Europe/Kyiv;null
z-859;859;Долішня (859);null;49.8366912;24.0661061;UA46060250010015970;79000;Україна;Львівська область;Львівський;Львівська ;Львів;вул. Долішня;9а;null;0;null;0;null;Europe/Kyiv;null
5082;395;Пасіки Зубрицькі (395);null;49.780769;24.090148;UA46060250010015970;79000;Україна;Львівська область;Львівський;Львівська ;Львів;вул. Дорожна;null;null;0;null;0;null;Europe/Kyiv;null
5160;51;Дорошенка (51);null;49.840181;24.027075;UA46060250010015970;79000;Україна;Львівська область;Львівський;Львівська ;Львів;вул. П. Дорошенка;3;null;0;null;0;null;Europe/Kyiv;null
44237;712;Енергетична (712);null;49.815603;24.030082;UA46060250010015970;79000;Україна;Львівська область;Львівський;Львівська ;Львів;вул. Енергетична;12;null;0;null;0;null;Europe/Kyiv;null
4844;121;Патона (121);null;49.823007;23.961446;UA46060250010015970;79000;Україна;Львівська область;Львівський;Львівська ;Львів;вул. Є. Патона;31;null;0;null;0;null;Europe/Kyiv;null
4831;122;Залізнична РА (122);null;49.822709;23.965157;UA46060250010015970;79000;Україна;Львівська область;Львівський;Львівська ;Львів;вул. Є. Патона;2;null;0;null;0;null;Europe/Kyiv;null
4832;119;Патона (119);null;49.823193;23.960516;UA46060250010015970;79000;Україна;Львівська область;Львівський;Львівська ;Львів;вул. Є. Патона;2;null;0;null;0;null;Europe/Kyiv;null
4845;120;Залізнична РА (120);null;49.822664;23.965661;UA46060250010015970;79000;Україна;Львівська область;Львівський;Львівська ;Львів;вул. Є. Патона;7;null;0;null;0;null;Europe/Kyiv;null
42745;645;Городницька (645);null;49.858448;24.02714;UA46060250010015970;79000;Україна;Львівська область;Львівський;Львівська ;Львів;вул. Замарстинівська;104;null;0;null;0;null;Europe/Kyiv;null
4854;45;Під Дубом (45);null;49.850152;24.026821;UA46060250010015970;79000;Україна;Львівська область;Львівський;Львівська ;Львів;вул. Замарстинівська;11;null;0;null;0;null;Europe/Kyiv;null
42740;704;Торф’яна (704);null;49.861045;24.026711;UA46060250010015970;79000;Україна;Львівська область;Львівський;Львівська ;Львів;вул. Замарстинівська;113;null;0;null;0;null;Europe/Kyiv;null
4998;704-01;Торф'яна (704-01);null;49.861654;24.026689;UA46060250010015970;79000;Україна;Львівська область;Львівський;Львівська ;Львів;вул. Замарстинівська;122;null;0;null;0;null;Europe/Kyiv;null
5002;647;Торф’яна (647);null;49.862133;24.026638;UA46060250010015970;79000;Україна;Львівська область;Львівський;Львівська ;Львів;вул. Замарстинівська;132;null;0;null;0;null;Europe/Kyiv;null
4570;648;Замарстинів (648);null;49.870371;24.020558;UA46060250010015970;79000;Україна;Львівська область;Львівський;Львівська ;Львів;вул. Замарстинівська;173;null;0;null;0;null;Europe/Kyiv;null
4647;649;Замарстинів (649);null;49.871272;24.018496;UA46060250010015970;79000;Україна;Львівська область;Львівський;Львівська ;Львів;вул. Замарстинівська;178;null;0;null;0;null;Europe/Kyiv;null
4668;654;Поліклініка МВС (654);null;49.873823;24.013699;UA46060250010015970;79000;Україна;Львівська область;Львівський;Львівська ;Львів;вул. Замарстинівська;225а;null;0;null;0;null;Europe/Kyiv;null
42748;640;Палац культури Гната Хоткевича (640);null;49.852271;24.02747;UA46060250010015970;79000;Україна;Львівська область;Львівський;Львівська ;Львів;вул. Замарстинівська;25;null;0;null;0;null;Europe/Kyiv;null
4667;651;Дитячий диспансер (651);null;49.877467;24.004027;UA46060250010015970;79000;Україна;Львівська область;Львівський;Львівська ;Львів;вул. Замарстинівська;265;null;0;null;0;null;Europe/Kyiv;null
42751;23;Під Дубом (23);null;49.850227;24.026856;UA46060250010015970;79000;Україна;Львівська область;Львівський;Львівська ;Львів;вул. Замарстинівська;32;null;0;null;0;null;Europe/Kyiv;null
42742;641;Гайдамацька (641);null;49.853827;24.028116;UA46060250010015970;79000;Україна;Львівська область;Львівський;Львівська ;Львів;вул. Замарстинівська;39;null;0;null;0;null;Europe/Kyiv;null
42749;642;Палац культури Гната Хоткевича (642);null;49.85229;24.027513;UA46060250010015970;79000;Україна;Львівська область;Львівський;Львівська ;Львів;вул. Замарстинівська;40;null;0;null;0;null;Europe/Kyiv;null
42741;244;Гайдамацька (244);null;49.85441;24.028242;UA46060250010015970;79000;Україна;Львівська область;Львівський;Львівська ;Львів;вул. Замарстинівська;54;null;0;null;0;null;Europe/Kyiv;null
42801;644;Городницька (644);null;49.858502;24.027041;UA46060250010015970;79000;Україна;Львівська область;Львівський;Львівська ;Львів;вул. Замарстинівська;85;null;0;null;0;null;Europe/Kyiv;null
4669;653;Замарстинів (653);null;49.87133;24.018109;UA46060250010015970;79000;Україна;Львівська область;Львівський;Львівська ;Львів;вул. Замарстинівська;223а;null;0;null;0;null;Europe/Kyiv;null
4648;650;Поліклініка МВС (650);null;49.873944;24.013517;UA46060250010015970;79000;Україна;Львівська область;Львівський;Львівська ;Львів;вул. Замарстинівська;226;null;0;null;0;null;Europe/Kyiv;null
4577;60;Захисників України (60);null;49.84203;24.015512;UA46060250010015970;79000;Україна;Львівська область;Львівський;Львівська ;Львів;вул. Захисників України;null;null;0;null;0;null;Europe/Kyiv;null
4858;25;Керченська (25);null;49.82347;24.052248;UA46060250010015970;79000;Україна;Львівська область;Львівський;Львівська ;Львів;вул. Зелена;109;навпроти №109;0;null;0;null;Europe/Kyiv;null
4815;394;Сихівська (394);null;49.797178;24.071935;UA46060250010015970;79000;Україна;Львівська область;Львівський;Львівська ;Львів;вул. Зелена;309;навпроти №309;0;null;0;null;Europe/Kyiv;null
4978;222;Керченська (222);null;49.823896;24.051647;UA46060250010015970;79000;Україна;Львівська область;Львівський;Львівська ;Львів;вул. Зелена;107;null;0;null;0;null;Europe/Kyiv;null
4859;369;Липова Алея (369);null;49.820659;24.055879;UA46060250010015970;79000;Україна;Львівська область;Львівський;Львівська ;Львів;вул. Зелена;130;null;0;null;0;null;Europe/Kyiv;null
4860;372;Дністерська (372);null;49.817745;24.059388;UA46060250010015970;79000;Україна;Львівська область;Львівський;Львівська ;Львів;вул. Зелена;150;null;0;null;0;null;Europe/Kyiv;null
4856;219;Львівводоканал (219);null;49.830685;24.043327;UA46060250010015970;79000;Україна;Львівська область;Львівський;Львівська ;Львів;вул. Зелена;54;null;0;null;0;null;Europe/Kyiv;null
4980;220;Львівводоканал (220);null;49.829834;24.044466;UA46060250010015970;79000;Україна;Львівська область;Львівський;Львівська ;Львів;вул. Зелена;77;null;0;null;0;null;Europe/Kyiv;null
4981;218;Шота Руставелі (218);null;49.834208;24.036008;UA46060250010015970;79000;Україна;Львівська область;Львівський;Львівська ;Львів;вул. Зелена;9;null;0;null;0;null;Europe/Kyiv;null
5083;396;Пасіки Зубрицькі (396);null;49.781051;24.087144;UA46060250010015970;79000;Україна;Львівська область;Львівський;Львівська ;Львів;вул. Зелена;null;null;0;null;0;null;Europe/Kyiv;null
4855;217;Шота Руставелі (217);null;49.833829;24.037035;UA46060250010015970;79000;Україна;Львівська область;Львівський;Львівська ;Львів;вул. Зелена;12;null;0;null;0;null;Europe/Kyiv;null
4976;224;Дністерська (224);null;49.817614;24.059892;UA46060250010015970;79000;Україна;Львівська область;Львівський;Львівська ;Львів;вул. Зелена;131;null;0;null;0;null;Europe/Kyiv;null
4933;370;Бузкова (370);null;49.813637;24.060295;UA46060250010015970;79000;Україна;Львівська область;Львівський;Львівська ;Львів;вул. Зелена;147;null;0;null;0;null;Europe/Kyiv;null
4932;371;Фрезерний завод (371);null;49.811404;24.061067;UA46060250010015970;79000;Україна;Львівська область;Львівський;Львівська ;Львів;вул. Зелена;149;null;0;null;0;null;Europe/Kyiv;null
4929;373;Бузкова (373);null;49.813747;24.060043;UA46060250010015970;79000;Україна;Львівська область;Львівський;Львівська ;Львів;вул. Зелена;186;null;0;null;0;null;Europe/Kyiv;null
4930;374;Фрезерний завод (374);null;49.811999;24.06082;UA46060250010015970;79000;Україна;Львівська область;Львівський;Львівська ;Львів;вул. Зелена;200;null;0;null;0;null;Europe/Kyiv;null
z-323;323;Автостанція №5 (323);null;49.806881;24.060262;UA46060250010015970;79000;Україна;Львівська область;Львівський;Львівська ;Львів;вул. Зелена;214;null;0;null;0;null;Europe/Kyiv;null
42807;375;Автостанція №5 (375);null;49.807544;24.061464;UA46060250010015970;79000;Україна;Львівська область;Львівський;Львівська ;Львів;вул. Зелена;214;null;0;null;0;null;Europe/Kyiv;null
4805;376;ДБК (376);null;49.804937;24.062709;UA46060250010015970;79000;Україна;Львівська область;Львівський;Львівська ;Львів;вул. Зелена;238;null;0;null;0;null;Europe/Kyiv;null
44998;780;Вагилевича (780);null;49.83285;24.040186;UA46060250010015970;79000;Україна;Львівська область;Львівський;Львівська ;Львів;вул. Зелена;24;null;0;null;0;null;Europe/Kyiv;null
4923;377;ДБК (377);null;49.805938;24.062306;UA46060250010015970;79000;Україна;Львівська область;Львівський;Львівська ;Львів;вул. Зелена;251;null;0;null;0;null;Europe/Kyiv;null
4817;378;Зубрівська (378);null;49.802268;24.065316;UA46060250010015970;79000;Україна;Львівська область;Львівський;Львівська ;Львів;вул. Зелена;261;null;0;null;0;null;Europe/Kyiv;null
4806;379;Зубрівська (379);null;49.801506;24.065895;UA46060250010015970;79000;Україна;Львівська область;Львівський;Львівська ;Львів;вул. Зелена;266;null;0;null;0;null;Europe/Kyiv;null
4807;380;Сихівська (380);null;49.797039;24.071817;UA46060250010015970;79000;Україна;Львівська область;Львівський;Львівська ;Львів;вул. Зелена;278;null;0;null;0;null;Europe/Kyiv;null
5079;381;Старий Сихів (381);null;49.793054;24.074344;UA46060250010015970;79000;Україна;Львівська область;Львівський;Львівська ;Львів;вул. Зелена;296;null;0;null;0;null;Europe/Kyiv;null
42811;382;Сихівська (382);null;49.798154;24.071753;UA46060250010015970;79000;Україна;Львівська область;Львівський;Львівська ;Львів;вул. Зелена;301;null;0;null;0;null;Europe/Kyiv;null
z-383;383;Колодязна (383);null;49.78993;24.074339;UA46060250010015970;79000;Україна;Львівська область;Львівський;Львівська ;Львів;вул. Зелена;306;null;0;null;0;null;Europe/Kyiv;null
5177;386;Сихівська (386);null;49.796861;24.072585;UA46060250010015970;79000;Україна;Львівська область;Львівський;Львівська ;Львів;вул. Зелена;313;null;0;null;0;null;Europe/Kyiv;null
5087;387;Вулецька (387);null;49.795613;24.073545;UA46060250010015970;79000;Україна;Львівська область;Львівський;Львівська ;Львів;вул. Зелена;327;null;0;null;0;null;Europe/Kyiv;null
5086;388;Старий Сихів (388);null;49.792461;24.074408;UA46060250010015970;79000;Україна;Львівська область;Львівський;Львівська ;Львів;вул. Зелена;367;null;0;null;0;null;Europe/Kyiv;null
42810;384;Станція Сихів (384);null;49.787921;24.075208;UA46060250010015970;79000;Україна;Львівська область;Львівський;Львівська ;Львів;вул. Зелена;397;null;0;null;0;null;Europe/Kyiv;null
z-389;389;Станція Сихів (389);null;49.787928;24.075178;UA46060250010015970;79000;Україна;Львівська область;Львівський;Львівська ;Львів;вул. Зелена;397;null;0;null;0;null;Europe/Kyiv;null
42808;391;Пасіки Зубрицькі (391);null;49.780014;24.090097;UA46060250010015970;79000;Україна;Львівська область;Львівський;Львівська ;Львів;вул. Зелена;408;null;0;null;0;null;Europe/Kyiv;null
45008;779;Вагилевича (779);null;49.832382;24.041372;UA46060250010015970;79000;Україна;Львівська область;Львівський;Львівська ;Львів;вул. Зелена;45;null;0;null;0;null;Europe/Kyiv;null
4979;221;Водогінна (221);null;49.827135;24.045143;UA46060250010015970;79000;Україна;Львівська область;Львівський;Львівська ;Львів;вул. Зелена;87;null;0;null;0;null;Europe/Kyiv;null
4857;24;Водогінна (24);null;49.826263;24.043692;UA46060250010015970;79000;Україна;Львівська область;Львівський;Львівська ;Львів;вул. Зелена;118;null;0;null;0;null;Europe/Kyiv;null
44229;393;Сихівський цвинтар (393);null;49.772404;24.101695;UA46060250010015970;79000;Україна;Львівська область;Львівський;Львівська ;Львів;вул. Зелена;420;null;0;null;0;null;Europe/Kyiv;null
z-393-1;393-1;Сихівський цвинтар (393-1);null;49.772162;24.1024;UA46060250010015970;79000;Україна;Львівська область;Львівський;Львівська ;Львів;вул. Зелена;420;null;0;null;0;null;Europe/Kyiv;null
5151;26;Зернова (26);null;49.846361;24.024991;UA46060250010015970;79000;Україна;Львівська область;Львівський;Львівська ;Львів;вул. Зернова;11;null;0;null;0;null;Europe/Kyiv;null
4758;657;Величковського (657);null;49.875209;23.932541;UA46060250010015970;79000;Україна;Львівська область;Львівський;Львівська ;Львів;вул. І. Величковського;40;навпроти №40;0;null;0;null;Europe/Kyiv;null
4760;656;Величковського (656);null;49.875299;23.93245;UA46060250010015970;79000;Україна;Львівська область;Львівський;Львівська ;Львів;вул. І. Величковського;42;null;0;null;0;null;Europe/Kyiv;null
5145;655-1;Рясне-2 (655-1);null;49.875596;23.938308;UA46060250010015970;79000;Україна;Львівська область;Львівський;Львівська ;Львів;вул. І. Величковського;2;null;0;null;0;null;Europe/Kyiv;null
4734;133;Любінська-Виговського (133);null;49.820016;23.969389;UA46060250010015970;79000;Україна;Львівська область;Львівський;Львівська ;Львів;вул. І. Виговського;null;вул. Чуваська, 12;0;null;0;null;Europe/Kyiv;null
5033;132;Південний (132);null;49.813547;23.976618;UA46060250010015970;79000;Україна;Львівська область;Львівський;Львівська ;Львів;вул. І. Виговського;null;вул. Щирецька, 36;0;null;0;null;Europe/Kyiv;null
4735;134;Скнилівський парк (134);null;49.817378;23.971503;UA46060250010015970;79000;Україна;Львівська область;Львівський;Львівська ;Львів;вул. І. Виговського;45а;навпроти №45А;0;null;0;null;Europe/Kyiv;null
4736;135;Скнилівок (135);null;49.812179;23.982065;UA46060250010015970;79000;Україна;Львівська область;Львівський;Львівська ;Львів;вул. І. Виговського;89;навпроти №89;0;null;0;null;Europe/Kyiv;null
4733;127;Поліклініка №5 (127);null;49.825854;23.967635;UA46060250010015970;79000;Україна;Львівська область;Львівський;Львівська ;Львів;вул. І. Виговського;32;null;0;null;0;null;Europe/Kyiv;null
4990;126;Залізнична РА (126);null;49.823415;23.967528;UA46060250010015970;79000;Україна;Львівська область;Львівський;Львівська ;Львів;вул. І. Виговського;29;null;0;null;0;null;Europe/Kyiv;null
4732;124;Мотозавод (124);null;49.830066;23.968123;UA46060250010015970;79000;Україна;Львівська область;Львівський;Львівська ;Львів;вул. І. Виговського;4;null;0;null;0;null;Europe/Kyiv;null
4716;131;Скнилівок (131);null;49.812297;23.981942;UA46060250010015970;79000;Україна;Львівська область;Львівський;Львівська ;Львів;вул. І. Виговського;89;null;0;null;0;null;Europe/Kyiv;null
4809;400;Кос-Анатольського (400);null;49.790865;24.067698;UA46060250010015970;79000;Україна;Львівська область;Львівський;Львівська ;Львів;вул. І. Кавалерідзе;16;null;0;null;0;null;Europe/Kyiv;null
4808;397;Кавалерідзе (397);null;49.793535;24.064463;UA46060250010015970;79000;Україна;Львівська область;Львівський;Львівська ;Львів;вул. І. Кавалерідзе;2;null;0;null;0;null;Europe/Kyiv;null
42776;527;Київська (527);null;49.832266;24.012486;UA46060250010015970;79000;Україна;Львівська область;Львівський;Львівська ;Львів;вул. І. Котляревського;null;вул. Генерала Т. Чупринки, 21;0;null;0;null;Europe/Kyiv;null
42728;661;Миколайчука (661);null;49.866507;24.044539;UA46060250010015970;79000;Україна;Львівська область;Львівський;Львівська ;Львів;вул. І. Миколайчука;null;кінцева трамвая №6;0;null;0;null;Europe/Kyiv;null
44220;661-01;Миколайчука (661-01);null;49.865907;24.044177;UA46060250010015970;79000;Україна;Львівська область;Львівський;Львівська ;Львів;вул. І. Миколайчука;null;кінцева трамвая №6;0;null;0;null;Europe/Kyiv;null
4783;662;Щурата (662);null;49.878796;24.036584;UA46060250010015970;79000;Україна;Львівська область;Львівський;Львівська ;Львів;вул. І. Миколайчука;2в;навпроти №28;0;null;0;null;Europe/Kyiv;null
4784;658;Лікарня святого Пантелеймона (658);null;49.874907;24.041259;UA46060250010015970;79000;Україна;Львівська область;Львівський;Львівська ;Львів;вул. І. Миколайчука;11;null;0;null;0;null;Europe/Kyiv;null
4781;659;Лікарня святого Пантелеймона (659);null;49.875119;24.041358;UA46060250010015970;79000;Україна;Львівська область;Львівський;Львівська ;Львів;вул. І. Миколайчука;12;null;0;null;0;null;Europe/Kyiv;null
4884;680;Щурата (680);null;49.879731;24.035157;UA46060250010015970;79000;Україна;Львівська область;Львівський;Львівська ;Львів;вул. І. Миколайчука;36а;null;0;null;0;null;Europe/Kyiv;null
42729;505;Площа Лема (505);null;49.832422;24.017771;UA46060250010015970;79000;Україна;Львівська область;Львівський;Львівська ;Львів;вул. І. Нечуя-Левицького;null;вул. Академіка А. Сахарова, 2;0;null;0;null;Europe/Kyiv;null
42772;27;Площа Лема (27);null;49.832645;24.017127;UA46060250010015970;79000;Україна;Львівська область;Львівський;Львівська ;Львів;вул. І. Нечуя-Левицького;8;null;0;null;0;null;Europe/Kyiv;null
z-507;507;Пулюя (507);null;49.801137;23.989074;UA46060250010015970;79000;Україна;Львівська область;Львівський;Львівська ;Львів;вул. І. Пулюя;34а;null;0;null;0;null;Europe/Kyiv;null
z-506;506;Коледж харчових технологій (506);null;49.801196;23.991676;UA46060250010015970;79000;Україна;Львівська область;Львівський;Львівська ;Львів;вул. І. Пулюя;29;null;0;null;0;null;Europe/Kyiv;null
42805;509;Боднарівка (509);null;49.805318;24.018216;UA46060250010015970;79000;Україна;Львівська область;Львівський;Львівська ;Львів;вул. І. Рубчака;null;вул. Стрийська, 144;0;null;0;null;Europe/Kyiv;null
5149;298;Рубчака (298);null;49.806159;24.011567;UA46060250010015970;79000;Україна;Львівська область;Львівський;Львівська ;Львів;вул. І. Рубчака;18;null;0;null;0;null;Europe/Kyiv;null
4695;508;Боднарівка (508);null;49.805491;24.01776;UA46060250010015970;79000;Україна;Львівська область;Львівський;Львівська ;Львів;вул. І. Рубчака;2;null;0;null;0;null;Europe/Kyiv;null
42804;299;Рубчака (299);null;49.806038;24.011827;UA46060250010015970;79000;Україна;Львівська область;Львівський;Львівська ;Львів;вул. І. Рубчака;7;null;0;null;0;null;Europe/Kyiv;null
4982;36;Саксаганського (36);null;49.834104;24.034224;UA46060250010015970;79000;Україна;Львівська область;Львівський;Львівська ;Львів;вул. І. Франка;null;вул. П. Саксаганського, 13;0;null;0;null;Europe/Kyiv;null
5032;38;Карманського (38);null;49.820445;24.027356;UA46060250010015970;79000;Україна;Львівська область;Львівський;Львівська ;Львів;вул. І. Франка;145;навпроти №145;0;null;0;null;Europe/Kyiv;null
5143;713;Музей Франка (713);null;49.822131;24.032507;UA46060250010015970;79000;Україна;Львівська область;Львівський;Львівська ;Львів;вул. І. Франка;125;null;0;null;0;null;Europe/Kyiv;null
5030;401;Карманського (401);null;49.820379;24.027484;UA46060250010015970;79000;Україна;Львівська область;Львівський;Львівська ;Львів;вул. І. Франка;145;null;0;null;0;null;Europe/Kyiv;null
5031;33;Музей Франка (33);null;49.822238;24.032257;UA46060250010015970;79000;Україна;Львівська область;Львівський;Львівська ;Львів;вул. І. Франка;150;null;0;null;0;null;Europe/Kyiv;null
5029;402;Католицький університет (402);null;49.817763;24.025356;UA46060250010015970;79000;Україна;Львівська область;Львівський;Львівська ;Львів;вул. І. Франка;159;null;0;null;0;null;Europe/Kyiv;null
4983;31;Площа Франка (31);null;49.830573;24.032114;UA46060250010015970;79000;Україна;Львівська область;Львівський;Львівська ;Львів;вул. І. Франка;66;null;0;null;0;null;Europe/Kyiv;null
5051;29;Шухевича (29);null;49.837368;24.035021;UA46060250010015970;79000;Україна;Львівська область;Львівський;Львівська ;Львів;вул. І. Франка;7;null;0;null;0;null;Europe/Kyiv;null
4865;311;Площа Франка (311);null;49.829702;24.031574;UA46060250010015970;79000;Україна;Львівська область;Львівський;Львівська ;Львів;вул. І. Франка;77;null;0;null;0;null;Europe/Kyiv;null
4899;30;Шухевича (30);null;49.836654;24.034894;UA46060250010015970;79000;Україна;Львівська область;Львівський;Львівська ;Львів;вул. І. Франка;8;null;0;null;0;null;Europe/Kyiv;null
4824;404;Податкова (404);null;49.814627;24.023098;UA46060250010015970;79000;Україна;Львівська область;Львівський;Львівська ;Львів;вул. І. Чмоли;2;null;0;null;0;null;Europe/Kyiv;null
z-425;425;Південний (425);null;49.814383;23.975239;UA46060250010015970;79000;Україна;Львівська область;Львівський;Львівська ;Львів;вул. І. Виговського;null;null;0;null;0;null;Europe/Kyiv;null
45026;706;Стрийський парк (706);null;49.825963;24.0334;UA46060250010015970;79000;Україна;Львівська область;Львівський;Львівська ;Львів;вул. І Франка;112;null;0;null;0;null;Europe/Kyiv;null
5170;1025;Винники, Госпіталь (1025);null;49.826378;24.135775;UA46060250010015970;79000;Україна;Львівська область;Львівський;Львівська ;Львів;вул. В. Івасюка;31;навпроти №31;0;null;0;null;Europe/Kyiv;null
44163;1024;Винники, Госпіталь (1024);null;49.826646;24.13543;UA46060250010015970;79000;Україна;Львівська область;Львівський;Львівська ;Львів;вул. В. Івасюка;31;null;0;null;0;null;Europe/Kyiv;null
42769;28;Стрийський парк (28);null;49.826955;24.03413;UA46060250010015970;79000;Україна;Львівська область;Львівський;Львівська ;Львів;вул. І. Свєнціцького;5;null;0;null;0;null;Europe/Kyiv;null
z-407;407;Коломийська - Трильовського (407);null;49.787544;24.066222;UA46060250010015970;79000;Україна;Львівська область;Львівський;Львівська ;Львів;вул. К. Трильовського;1;навпроти №1;0;null;0;null;Europe/Kyiv;null
4873;805;Калнишевського (805);null;49.848036;23.969743;UA46060250010015970;79000;Україна;Львівська область;Львівський;Львівська ;Львів;вул. П. Калнишевського;15;null;0;null;0;null;Europe/Kyiv;null
42777;511;Київська (511);null;49.832429;24.011806;UA46060250010015970;79000;Україна;Львівська область;Львівський;Львівська ;Львів;вул. Київська;1;null;0;null;0;null;Europe/Kyiv;null
42782;293;Ісаєвича (293);null;49.822662;24.006605;UA46060250010015970;79000;Україна;Львівська область;Львівський;Львівська ;Львів;вул. Княгині Ольги;null;вул. Д. Котка, 4;0;null;0;null;Europe/Kyiv;null
5078;522;Аквапарк (522);null;49.807253;23.99869;UA46060250010015970;79000;Україна;Львівська область;Львівський;Львівська ;Львів;вул. Княгині Ольги;108;null;0;null;0;null;Europe/Kyiv;null
5088;520;Аквапарк (520);null;49.806634;23.999097;UA46060250010015970;79000;Україна;Львівська область;Львівський;Львівська ;Львів;вул. Княгині Ольги;71;null;0;null;0;null;Europe/Kyiv;null
45004;523;Аркаса (523);null;49.817325;24.002839;UA46060250010015970;79000;Україна;Львівська область;Львівський;Львівська ;Львів;вул. Княгині Ольги;100л;null;0;null;0;null;Europe/Kyiv;null
4957;525;Аркаса (525);null;49.817358;24.003038;UA46060250010015970;79000;Україна;Львівська область;Львівський;Львівська ;Львів;вул. Княгині Ольги;100л;null;0;null;0;null;Europe/Kyiv;null
4958;521;Бойчука, Кіноцентр (521);null;49.81202;23.999918;UA46060250010015970;79000;Україна;Львівська область;Львівський;Львівська ;Львів;вул. Княгині Ольги;104;null;0;null;0;null;Europe/Kyiv;null
44999;514;Аркаса (514);null;49.817861;24.003609;UA46060250010015970;79000;Україна;Львівська область;Львівський;Львівська ;Львів;вул. Княгині Ольги;11;null;0;null;0;null;Europe/Kyiv;null
4950;513;Ісаєвича (513);null;49.82378;24.007662;UA46060250010015970;79000;Україна;Львівська область;Львівський;Львівська ;Львів;вул. Княгині Ольги;3;null;0;null;0;null;Europe/Kyiv;null
4956;515;Ісаєвича (515);null;49.82301;24.006672;UA46060250010015970;79000;Україна;Львівська область;Львівський;Львівська ;Львів;вул. Княгині Ольги;32;null;0;null;0;null;Europe/Kyiv;null
42785;516;Бойчука, Кіноцентр (516);null;49.813339;24.000768;UA46060250010015970;79000;Україна;Львівська область;Львівський;Львівська ;Львів;вул. Княгині Ольги;42;null;0;null;0;null;Europe/Kyiv;null
42784;517;Бойчука, Кіноцентр (517);null;49.813021;24.000468;UA46060250010015970;79000;Україна;Львівська область;Львівський;Львівська ;Львів;вул. Княгині Ольги;49;null;0;null;0;null;Europe/Kyiv;null
4948;518;Бойчука, Кіноцентр (518);null;49.812321;24.000412;UA46060250010015970;79000;Україна;Львівська область;Львівський;Львівська ;Львів;вул. Княгині Ольги;59;null;0;null;0;null;Europe/Kyiv;null
42783;294;Ісаєвича (294);null;49.822515;24.00664;UA46060250010015970;79000;Україна;Львівська область;Львівський;Львівська ;Львів;вул. Княгині Ольги;5а;null;0;null;0;null;Europe/Kyiv;null
42787;519;Аквапарк (519);null;49.807142;23.999028;UA46060250010015970;79000;Україна;Львівська область;Львівський;Львівська ;Львів;вул. Княгині Ольги;69;null;0;null;0;null;Europe/Kyiv;null
42786;519-01;Аквапарк-висадка (519-01);null;49.807125;23.998851;UA46060250010015970;79000;Україна;Львівська область;Львівський;Львівська ;Львів;вул. Княгині Ольги;69;null;0;null;0;null;Europe/Kyiv;null
4949;524;Аркаса (524);null;49.817564;24.003247;UA46060250010015970;79000;Україна;Львівська область;Львівський;Львівська ;Львів;вул. Княгині Ольги;9;null;0;null;0;null;Europe/Kyiv;null
4951;512;Горбачевського (512);null;49.825757;24.009494;UA46060250010015970;79000;Україна;Львівська область;Львівський;Львівська ;Львів;вул. Княгині Ольги;1;null;0;null;0;null;Europe/Kyiv;null
44975;39;Князя Романа (39);null;49.837659;24.032995;UA46060250010015970;79000;Україна;Львівська область;Львівський;Львівська ;Львів;вул. Князя Романа;26;null;0;null;0;null;Europe/Kyiv;null
4939;230;Ковельська (230);null;49.859061;24.05907;UA46060250010015970;79000;Україна;Львівська область;Львівський;Львівська ;Львів;вул. Ковельська;null;вул. Пластова, 2;0;null;0;null;Europe/Kyiv;null
4943;231;Ковельська (231);null;49.859971;24.060305;UA46060250010015970;79000;Україна;Львівська область;Львівський;Львівська ;Львів;вул. Ковельська;63;навпроти №63;0;null;0;null;Europe/Kyiv;null
4940;228;Милятинська (228);null;49.857515;24.057266;UA46060250010015970;79000;Україна;Львівська область;Львівський;Львівська ;Львів;вул. Ковельська;41;null;0;null;0;null;Europe/Kyiv;null
4917;229;Милятинська (229);null;49.857506;24.057382;UA46060250010015970;79000;Україна;Львівська область;Львівський;Львівська ;Львів;вул. Ковельська;50;null;0;null;0;null;Europe/Kyiv;null
44942;766;Ковельська (766);null;49.860966;24.060812;UA46060250010015970;79000;Україна;Львівська область;Львівський;Львівська ;Львів;вул. Ковельська;67;null;0;null;0;null;Europe/Kyiv;null
2560924;301;Католицький університет (301);null;49.817607;24.025214;UA46060250010015970;79000;Україна;Львівська область;Львівський;Львівська ;Львів;вул. Козельницька;2;null;0;null;0;null;Europe/Kyiv;null
4823;408;Католицький університет (408);null;49.816292;24.025732;UA46060250010015970;79000;Україна;Львівська область;Львівський;Львівська ;Львів;вул. Козельницька;4;null;0;null;0;null;Europe/Kyiv;null
5174;411;Коломийська - Трильовського (411);null;49.787758;24.066636;UA46060250010015970;79000;Україна;Львівська область;Львівський;Львівська ;Львів;вул. Коломийська;9;навпроти №9;0;null;0;null;Europe/Kyiv;null
4811;409;Коломийська (409);null;49.788039;24.061051;UA46060250010015970;79000;Україна;Львівська область;Львівський;Львівська ;Львів;вул. Коломийська;7;null;0;null;0;null;Europe/Kyiv;null
4810;410;Коломийська - Трильовського (410);null;49.787672;24.065938;UA46060250010015970;79000;Україна;Львівська область;Львівський;Львівська ;Львів;вул. Коломийська;9;null;0;null;0;null;Europe/Kyiv;null
5175;405;Трильовського (405);null;49.783599;24.067279;UA46060250010015970;79000;Україна;Львівська область;Львівський;Львівська ;Львів;вул. Коломийська;null;null;0;null;0;null;Europe/Kyiv;null
42792;677;Коновальця (677);null;49.824214;23.992896;UA46060250010015970;79000;Україна;Львівська область;Львівський;Львівська ;Львів;вул. Є. Коновальця;109;навпроти №109;0;null;0;null;Europe/Kyiv;null
42790;503;Гординських (503);null;49.826983;23.997349;UA46060250010015970;79000;Україна;Львівська область;Львівський;Львівська ;Львів;вул. Є. Коновальця;100;null;0;null;0;null;Europe/Kyiv;null
42791;504;Коновальця, музей Труша (504);null;49.824384;23.993207;UA46060250010015970;79000;Україна;Львівська область;Львівський;Львівська ;Львів;вул. Є. Коновальця;111;null;0;null;0;null;Europe/Kyiv;null
42779;499;Мельника (499);null;49.830664;24.003244;UA46060250010015970;79000;Україна;Львівська область;Львівський;Львівська ;Львів;вул. Є. Коновальця;51;null;0;null;0;null;Europe/Kyiv;null
42789;500;Залізняка (500);null;49.829163;24.00076;UA46060250010015970;79000;Україна;Львівська область;Львівський;Львівська ;Львів;вул. Є. Коновальця;74;null;0;null;0;null;Europe/Kyiv;null
42788;501;Залізняка (501);null;49.828415;23.999704;UA46060250010015970;79000;Україна;Львівська область;Львівський;Львівська ;Львів;вул. Є. Коновальця;85;null;0;null;0;null;Europe/Kyiv;null
42800;502;Гординських (502);null;49.826692;23.996925;UA46060250010015970;79000;Україна;Львівська область;Львівський;Львівська ;Львів;вул. Є. Коновальця;97;null;0;null;0;null;Europe/Kyiv;null
42771;43;Головна пошта (43);null;49.836443;24.022341;UA46060250010015970;79000;Україна;Львівська область;Львівський;Львівська ;Львів;вул. М. Коперника;40;null;0;null;0;null;Europe/Kyiv;null
4916;273;Корейська (273);null;49.855541;24.053444;UA46060250010015970;79000;Україна;Львівська область;Львівський;Львівська ;Львів;вул. Корейська;7;null;0;null;0;null;Europe/Kyiv;null
45067;764;Духновича (764);null;49.847126;24.081444;UA46060250010015970;79000;Україна;Львівська область;Львівський;Львівська ;Львів;вул. Дорога Кривчицька ;103;null;0;null;0;null;Europe/Kyiv;null
5098;232;Шевченківський гай (232);null;49.842276;24.06921;UA46060250010015970;79000;Україна;Львівська область;Львівський;Львівська ;Львів;вул. Дорога Кривчицька ;16;null;0;null;0;null;Europe/Kyiv;null
5090;235;Шевченківський гай (235);null;49.842328;24.069033;UA46060250010015970;79000;Україна;Львівська область;Львівський;Львівська ;Львів;вул. Дорога Кривчицька ;19а;null;0;null;0;null;Europe/Kyiv;null
5099;233;Кривчиці (233);null;49.844116;24.07369;UA46060250010015970;79000;Україна;Львівська область;Львівський;Львівська ;Львів;вул. Дорога Кривчицька ;46;null;0;null;0;null;Europe/Kyiv;null
5089;234;Кривчиці (234);null;49.844255;24.073829;UA46060250010015970;79000;Україна;Львівська область;Львівський;Львівська ;Львів;вул. Дорога Кривчицька ;53;null;0;null;0;null;Europe/Kyiv;null
45068;765;Духновича (765);null;49.846994;24.081098;UA46060250010015970;79000;Україна;Львівська область;Львівський;Львівська ;Львів;вул. Дорога Кривчицька ;76;null;0;null;0;null;Europe/Kyiv;null
5171;768;Три Корони (768);null;49.814043;23.981416;UA46060250010015970;79000;Україна;Львівська область;Львівський;Львівська ;Львів;вул. Кульпарківська;172;null;0;null;0;null;Europe/Kyiv;null
z-767;767;Три Корони (767);null;49.814118;23.981416;UA46060250010015970;79000;Україна;Львівська область;Львівський;Львівська ;Львів;вул. Кульпарківська;174;null;0;null;0;null;Europe/Kyiv;null
4585;137;Кульпарків (137);null;49.819294;23.98787;UA46060250010015970;79000;Україна;Львівська область;Львівський;Львівська ;Львів;вул. Кульпарківська;118;null;0;null;0;null;Europe/Kyiv;null
4620;533;Щирецька (533);null;49.809356;23.982562;UA46060250010015970;79000;Україна;Львівська область;Львівський;Львівська ;Львів;вул. Кульпарківська;123;null;0;null;0;null;Europe/Kyiv;null
4622;532;Кульпарків (532);null;49.818638;23.987741;UA46060250010015970;79000;Україна;Львівська область;Львівський;Львівська ;Львів;вул. Кульпарківська;126;null;0;null;0;null;Europe/Kyiv;null
2563170;578;Вітряна-Кульпарківська (578);null;49.815374;23.984705;UA46060250010015970;79000;Україна;Львівська область;Львівський;Львівська ;Львів;вул. Кульпарківська;158;null;0;null;0;null;Europe/Kyiv;null
4586;136;Скнилівок (136);null;49.813453;23.98467;UA46060250010015970;79000;Україна;Львівська область;Львівський;Львівська ;Львів;вул. Кульпарківська;158а;null;0;null;0;null;Europe/Kyiv;null
4587;138;Щирецька (138);null;49.809472;23.982446;UA46060250010015970;79000;Україна;Львівська область;Львівський;Львівська ;Львів;вул. Кульпарківська;214;null;0;null;0;null;Europe/Kyiv;null
4621;534;Скнилівок (534);null;49.8139;23.985112;UA46060250010015970;79000;Україна;Львівська область;Львівський;Львівська ;Львів;вул. Кульпарківська;2а;null;0;null;0;null;Europe/Kyiv;null
4684;529;Кульпарківська (529);null;49.834182;23.990906;UA46060250010015970;79000;Україна;Львівська область;Львівський;Львівська ;Львів;вул. Кульпарківська;3;null;0;null;0;null;Europe/Kyiv;null
4701;530;Кардіологічний центр (530);null;49.831242;23.990782;UA46060250010015970;79000;Україна;Львівська область;Львівський;Львівська ;Львів;вул. Кульпарківська;35;null;0;null;0;null;Europe/Kyiv;null
45007;392;Кардіологічний центр (392);null;49.829796;23.99031;UA46060250010015970;79000;Україна;Львівська область;Львівський;Львівська ;Львів;вул. Кульпарківська;42;null;0;null;0;null;Europe/Kyiv;null
4584;531;Антоновича (531);null;49.826534;23.989846;UA46060250010015970;79000;Україна;Львівська область;Львівський;Львівська ;Львів;вул. Кульпарківська;56;null;0;null;0;null;Europe/Kyiv;null
z-828;828;Антоновича (828);null;49.825764;23.989863;UA46060250010015970;79000;Україна;Львівська область;Львівський;Львівська ;Львів;вул. Кульпарківська;73;null;0;null;0;null;Europe/Kyiv;null
z-829;829;Садова (829);null;49.821703;23.988774;UA46060250010015970;79000;Україна;Львівська область;Львівський;Львівська ;Львів;вул. Кульпарківська;93;null;0;null;0;null;Europe/Kyiv;null
z-830;830;Садова (830);null;49.821694;23.98868;UA46060250010015970;79000;Україна;Львівська область;Львівський;Львівська ;Львів;вул. Кульпарківська;96;null;0;null;0;null;Europe/Kyiv;null
5185;772;Скнилівський парк (772);null;49.817448;23.972667;UA46060250010015970;79000;Україна;Львівська область;Львівський;Львівська ;Львів;вул. О. Кульчицької;1;null;0;null;0;null;Europe/Kyiv;null
44085;774;Насінна (774);null;49.818311;23.9765;UA46060250010015970;79000;Україна;Львівська область;Львівський;Львівська ;Львів;вул. О. Кульчицької;16а;null;0;null;0;null;Europe/Kyiv;null
44086;773;Насінна (773);null;49.818581;23.976988;UA46060250010015970;79000;Україна;Львівська область;Львівський;Львівська ;Львів;вул. О. Кульчицької;3;null;0;null;0;null;Europe/Kyiv;null
2560947;820;Станція п'ятий парк (820);null;49.834543;23.96006;UA46060250010015970;79000;Україна;Львівська область;Львівський;Львівська ;Львів;вул. Генерала В. Курмановича;1а;навпроти №1а;0;null;0;null;Europe/Kyiv;null
z-827;827;Курмановича (827);null;49.827162;23.942028;UA46060250010015970;79000;Україна;Львівська область;Львівський;Львівська ;Львів;вул. Генерала В. Курмановича;19;навпроти №19;0;null;0;null;Europe/Kyiv;null
2560954;825;Львівтеплоенерго (825);null;49.829318;23.94879;UA46060250010015970;79000;Україна;Львівська область;Львівський;Львівська ;Львів;вул. Генерала В. Курмановича;4;навпроти №4;0;null;0;null;Europe/Kyiv;null
2560952;823;Колекторна (823);null;49.831742;23.955852;UA46060250010015970;79000;Україна;Львівська область;Львівський;Львівська ;Львів;вул. Генерала В. Курмановича;9;навпроти №9;0;null;0;null;Europe/Kyiv;null
z-826;826;Курмановича (826);null;49.827135;23.941832;UA46060250010015970;79000;Україна;Львівська область;Львівський;Львівська ;Львів;вул. Генерала В. Курмановича;19;null;0;null;0;null;Europe/Kyiv;null
2560948;821;Станція П'ятий парк (821);null;49.83481;23.960683;UA46060250010015970;79000;Україна;Львівська область;Львівський;Львівська ;Львів;вул. Генерала В. Курмановича;1а;null;0;null;0;null;Europe/Kyiv;null
z-824;824;Львівтеплоенерго (824);null;49.829128;23.948066;UA46060250010015970;79000;Україна;Львівська область;Львівський;Львівська ;Львів;вул. Генерала В. Курмановича;4;null;0;null;0;null;Europe/Kyiv;null
2560951;822;Колекторна (822);null;49.831626;23.955519;UA46060250010015970;79000;Україна;Львівська область;Львівський;Львівська ;Львів;вул. Генерала В. Курмановича;9;null;0;null;0;null;Europe/Kyiv;null
4894;141;Естонська (141);null;49.846887;23.990343;UA46060250010015970;79000;Україна;Львівська область;Львівський;Львівська ;Львів;вул. Левандівська;3;навпроти №3;0;null;0;null;Europe/Kyiv;null
4746;139;Левандівська (139);null;49.848437;23.994302;UA46060250010015970;79000;Україна;Львівська область;Львівський;Львівська ;Львів;вул. Левандівська;1;null;0;null;0;null;Europe/Kyiv;null
4771;142;Левандівська (142);null;49.848406;23.993974;UA46060250010015970;79000;Україна;Львівська область;Львівський;Львівська ;Львів;вул. Левандівська;10;null;0;null;0;null;Europe/Kyiv;null
4743;145;Широка (145);null;49.84303;23.980402;UA46060250010015970;79000;Україна;Львівська область;Львівський;Львівська ;Львів;вул. Левандівська;25;null;0;null;0;null;Europe/Kyiv;null
4745;140;Естонська (140);null;49.846839;23.990364;UA46060250010015970;79000;Україна;Львівська область;Львівський;Львівська ;Львів;вул. Левандівська;3;null;0;null;0;null;Europe/Kyiv;null
44811;239;Левицького (239);null;49.830341;24.049463;UA46060250010015970;79000;Україна;Львівська область;Львівський;Львівська ;Львів;вул. К. Левицького;122;null;0;null;0;null;Europe/Kyiv;null
44812;238;Левицького (238);null;49.830464;24.049442;UA46060250010015970;79000;Україна;Львівська область;Львівський;Львівська ;Львів;вул. К. Левицького;99;null;0;null;0;null;Europe/Kyiv;null
4782;619;Леннона (619);null;49.879676;24.038561;UA46060250010015970;79000;Україна;Львівська область;Львівський;Львівська ;Львів;вул. Дж. Леннона;12;null;0;null;0;null;Europe/Kyiv;null
2560966;806;Біля лева (806);null;49.826418;24.101976;UA46060250010015970;79000;Україна;Львівська область;Львівський;Львівська ;Львів;вул. Личаківська;null;null;0;null;0;null;Europe/Kyiv;null
2560967;807;Біля лева (807);null;49.826834;24.101751;UA46060250010015970;79000;Україна;Львівська область;Львівський;Львівська ;Львів;вул. Личаківська;null;null;0;null;0;null;Europe/Kyiv;null
2560968;808;Млинівці (808);null;49.823835;24.106117;UA46060250010015970;79000;Україна;Львівська область;Львівський;Львівська ;Львів;вул. Личаківська;null;До Винник;0;null;0;null;Europe/Kyiv;null
2560969;809;Млинівці (809);null;49.823806;24.106289;UA46060250010015970;79000;Україна;Львівська область;Львівський;Львівська ;Львів;вул. Личаківська;null;До Львова;0;null;0;null;Europe/Kyiv;null
5066;261;Бахматюка (261);null;49.83481;24.084139;UA46060250010015970;79000;Україна;Львівська область;Львівський;Львівська ;Львів;вул. Личаківська;261;навпроти №261;0;null;0;null;Europe/Kyiv;null
5067;262;Дріжджова (262);null;49.833716;24.089118;UA46060250010015970;79000;Україна;Львівська область;Львівський;Львівська ;Львів;вул. Личаківська;283;навпроти №283;0;null;0;null;Europe/Kyiv;null
5068;1018;Винниківське озеро (1018);null;49.820682;24.112582;UA46060250010015970;79000;Україна;Львівська область;Львівський;Львівська ;Львів;вул. Личаківська;null;перехрестя з вул. Б. Хмельницького;0;null;0;null;Europe/Kyiv;null
5061;1019;Винниківське озеро (1019);null;49.820656;24.112464;UA46060250010015970;79000;Україна;Львівська область;Львівський;Львівська ;Львів;вул. Личаківська;null;перехрестя з вул. Б. Хмельницького;0;null;0;null;Europe/Kyiv;null
5065;254;Ялівець (254);null;49.835683;24.07554;UA46060250010015970;79000;Україна;Львівська область;Львівський;Львівська ;Львів;вул. Личаківська;162;null;0;null;0;null;Europe/Kyiv;null
5064;257;Ялівець (257);null;49.835779;24.075004;UA46060250010015970;79000;Україна;Львівська область;Львівський;Львівська ;Львів;вул. Личаківська;223;null;0;null;0;null;Europe/Kyiv;null
5063;258;Бахматюка (258);null;49.834997;24.083646;UA46060250010015970;79000;Україна;Львівська область;Львівський;Львівська ;Львів;вул. Личаківська;259;null;0;null;0;null;Europe/Kyiv;null
4875;242;Військовий госпіталь (242);null;49.840259;24.04315;UA46060250010015970;79000;Україна;Львівська область;Львівський;Львівська ;Львів;вул. Личаківська;35;null;0;null;0;null;Europe/Kyiv;null
4912;243;Медичний університет (243);null;49.839806;24.049845;UA46060250010015970;79000;Україна;Львівська область;Львівський;Львівська ;Львів;вул. Личаківська;52;null;0;null;0;null;Europe/Kyiv;null
4849;42;Площа Митна (42);null;49.839833;24.038005;UA46060250010015970;79000;Україна;Львівська область;Львівський;Львівська ;Львів;вул. Личаківська;7;null;0;null;0;null;Europe/Kyiv;null
42762;247;Мечникова (247);null;49.838716;24.05423;UA46060250010015970;79000;Україна;Львівська область;Львівський;Львівська ;Львів;вул. Личаківська;107;null;0;null;0;null;Europe/Kyiv;null
42761;248;Богдана Котика (248);null;49.837252;24.060026;UA46060250010015970;79000;Україна;Львівська область;Львівський;Львівська ;Львів;вул. Личаківська;112;null;0;null;0;null;Europe/Kyiv;null
4914;249;Богдана Котика (249);null;49.837304;24.060171;UA46060250010015970;79000;Україна;Львівська область;Львівський;Львівська ;Львів;вул. Личаківська;112;null;0;null;0;null;Europe/Kyiv;null
42763;250;Мечникова (250);null;49.838448;24.055493;UA46060250010015970;79000;Україна;Львівська область;Львівський;Львівська ;Львів;вул. Личаківська;113;null;0;null;0;null;Europe/Kyiv;null
42760;251;Богдана Котика (251);null;49.837419;24.059672;UA46060250010015970;79000;Україна;Львівська область;Львівський;Львівська ;Львів;вул. Личаківська;141;null;0;null;0;null;Europe/Kyiv;null
4872;252;Котика (252);null;49.837263;24.060879;UA46060250010015970;79000;Україна;Львівська область;Львівський;Львівська ;Львів;вул. Личаківська;149;null;0;null;0;null;Europe/Kyiv;null
4934;253;Автостанція №6 (253);null;49.835865;24.071536;UA46060250010015970;79000;Україна;Львівська область;Львівський;Львівська ;Львів;вул. Личаківська;157;null;0;null;0;null;Europe/Kyiv;null
5100;255;Пасічна (255);null;49.8361;24.067231;UA46060250010015970;79000;Україна;Львівська область;Львівський;Львівська ;Львів;вул. Личаківська;175;null;0;null;0;null;Europe/Kyiv;null
5248;256;Автостанція №6 (256);null;49.835945;24.07101;UA46060250010015970;79000;Україна;Львівська область;Львівський;Львівська ;Львів;вул. Личаківська;195;null;0;null;0;null;Europe/Kyiv;null
4910;240;Площа Митна (240);null;49.839773;24.037182;UA46060250010015970;79000;Україна;Львівська область;Львівський;Львівська ;Львів;вул. Личаківська;2;null;0;null;0;null;Europe/Kyiv;null
4911;241;Військовий госпіталь (241);null;49.840221;24.043327;UA46060250010015970;79000;Україна;Львівська область;Львівський;Львівська ;Львів;вул. Личаківська;28;null;0;null;0;null;Europe/Kyiv;null
5062;259;Дріжджова (259);null;49.834118;24.087959;UA46060250010015970;79000;Україна;Львівська область;Львівський;Львівська ;Львів;вул. Личаківська;281;null;0;null;0;null;Europe/Kyiv;null
4874;245;Медичний університет (245);null;49.840041;24.049249;UA46060250010015970;79000;Україна;Львівська область;Львівський;Львівська ;Львів;вул. Личаківська;67;null;0;null;0;null;Europe/Kyiv;null
44808;246;Мечникова (246);null;49.838735;24.054002;UA46060250010015970;79000;Україна;Львівська область;Львівський;Львівська ;Львів;вул. Личаківська;74;null;0;null;0;null;Europe/Kyiv;null
z-416;416;Західенерго (416);null;49.81063;24.02666;UA46060250010015970;79000;Україна;Львівська область;Львівський;Львівська ;Львів;вул. Луганська;null;null;0;null;0;null;Europe/Kyiv;null
z-414;414;Станція Персенківка (414);null;49.809777;24.031026;UA46060250010015970;79000;Україна;Львівська область;Львівський;Львівська ;Львів;вул. Луганська;null;null;0;null;0;null;Europe/Kyiv;null
