uid,code,label,description,lat,lon,CATUTTC,addressPostCode,addressAdminUnitL1,addressAdminUnitL2,addressAdminUnitL3,addressAdminUnitL4,addressPostName,addressThoroughfare,addressLocatorDesignator,addressDescription,zoneId,url,type,parentStation,timezone,wheelchairBoarding
5159,50,Дорошенка (50),,49.840237,24.027244,UA46060250010015970,79000,Україна,Львівська область,Львівський,Львівська ,Львів,вул. П. Дорошенка,3,,0,,0,,Europe/Kyiv,
4977,223,Липова Алея (223),,49.822388,24.054396,UA46060250010015970,79000,Україна,Львівська область,Львівський,Львівська ,Львів,вул. Зелена,113,,0,,0,,Europe/Kyiv,
4800,403,Податкова (403),,49.814562,24.021947,UA46060250010015970,79000,Україна,Львівська область,Львівський,Львівська ,Львів,вул. І. Чмоли,1,,0,,0,,Europe/Kyiv,
5043,93,Гайовської (93),,49.844742,23.945652,UA46060250010015970,79000,Україна,Львівська область,Львівський,Львівська ,Львів,вул. Білогорща,50,навпроти №50,0,,0,,Europe/Kyiv,
5047,88,Гайовської (88),,49.844787,23.945249,UA46060250010015970,79000,Україна,Львівська область,Львівський,Львівська ,Львів,вул. Білогорща,50,,0,,0,,Europe/Kyiv,
4656,1052,"Брюховичі, Арктична (1052)",,49.901262,23.935706,UA46060250040091928,79491,Україна,Львівська область,Львівський,Львівська ,Брюховичі,вул. В. Івасюка,6,,0,,0,,Europe/Kyiv,
4825,478,Автобусний завод (478),,49.808316,24.016982,UA46060250010015970,79000,Україна,Львівська область,Львівський,Львівська ,Львів,вул. Володимира Великого,2,,0,,0,,Europe/Kyiv,
z-111-01,111-01,Приміський вокзал (111-01),,49.836374,23.997509,UA46060250010015970,79000,Україна,Львівська область,Львівський,Львівська ,Львів,вул. Городоцька,112,,0,,0,,Europe/Kyiv,
4861,365,Вашингтона (365),,49.815921,24.063009,UA46060250010015970,79000,Україна,Львівська область,Львівський,Львівська ,Львів,вул. Дж. Вашингтона,,"вул. Зелена, 147",0,,0,,Europe/Kyiv,
5057,1012,"Винники, Шептицьких (1012)",,49.802299,24.135584,UA46060250010015970,79000,Україна,Львівська область,Львівський,Львівська ,Львів,вул. Забава,1а,,0,,0,,Europe/Kyiv,
4813,399,Кос-Анатольського (399),,49.791274,24.06744,UA46060250010015970,79000,Україна,Львівська область,Львівський,Львівська ,Львів,вул. І. Кавалерідзе,15,,0,,0,,Europe/Kyiv,
5053,406,Трильовського (406),,49.783734,24.067279,UA46060250010015970,79000,Україна,Львівська область,Львівський,Львівська ,Львів,вул. К. Трильовського,21,,0,,0,,Europe/Kyiv,
4955,526,Горбачевського (526),,49.826083,24.0093,UA46060250010015970,79000,Україна,Львівська область,Львівський,Львівська ,Львів,вул. Княгині Ольги,,перехрестя з вул. Академіка А. Сахарова,0,,0,,Europe/Kyiv,
5156,237,Кукурудзяна (237),,49.862465,24.060386,UA46060250010015970,79000,Україна,Львівська область,Львівський,Львівська ,Львів,вул. Кукурудзяна,,перехрестя з вул. Ковельською,0,,0,,Europe/Kyiv,
4665,1061,"Брюховичі, Курортна (1061)",,49.904392,23.960066,UA46060250040091928,79491,Україна,Львівська область,Львівський,Львівська ,Брюховичі,вул. Курортна,,"вул. Львівська, 23",0,,0,,Europe/Kyiv,
4662,1063,"Брюховичі, Вокзал (1063)",,49.904133,23.940427,UA46060250040091928,79491,Україна,Львівська область,Львівський,Львівська ,Брюховичі,вул. Незалежності,,перехрестя з вул. Незалежності України,0,,0,,Europe/Kyiv,
4664,1059,"Брюховичі, Пляжна (1059)",,49.905602,23.957378,UA46060250040091928,79491,Україна,Львівська область,Львівський,Львівська ,Брюховичі,вул. Курортна,20,,0,,0,,Europe/Kyiv,
z-413,413,Львівхолод (413),,49.807762,24.053428,UA46060250010015970,79000,Україна,Львівська область,Львівський,Львівська ,Львів,вул. Луганська,6,,0,,0,,Europe/Kyiv,
4666,1068,"Брюховичі, Джерело (1068)",,49.901241,23.960039,UA46060250040091928,79491,Україна,Львівська область,Львівський,Львівська ,Брюховичі,вул. Львівська,,,0,,0,,Europe/Kyiv,
4866,268,Каштанова (268),,49.824522,24.079285,UA46060250010015970,79000,Україна,Львівська область,Львівський,Львівська ,Львів,вул. Медової Печери,30,,0,,0,,Europe/Kyiv,
4868,269,Каштанова (269),,49.824678,24.079086,UA46060250010015970,79000,Україна,Львівська область,Львівський,Львівська ,Львів,вул. Медової Печери,45,,0,,0,,Europe/Kyiv,
5046,164,Роксоляни (164),,49.843999,23.958526,UA46060250010015970,79000,Україна,Львівська область,Львівський,Львівська ,Львів,вул. Роксоляни,,"вул. Широка, 94",0,,0,,Europe/Kyiv,
5044,165,Роксоляни (165),,49.843995,23.958357,UA46060250010015970,79000,Україна,Львівська область,Львівський,Львівська ,Львів,вул. Роксоляни,,перехрестя з вул. Білогорща,0,,0,,Europe/Kyiv,
4751,689,Шевченка (689),,49.861706,23.966519,UA46060250010015970,79000,Україна,Львівська область,Львівський,Львівська ,Львів,вул. Т. Шевченка,264,,0,,0,,Europe/Kyiv,
5045,193,Гніздовського (193),,49.84176,23.966659,UA46060250010015970,79000,Україна,Львівська область,Львівський,Львівська ,Львів,вул. Широка,68,,0,,0,,Europe/Kyiv,
4999,354-01,Антонича (354-01),,49.785195,24.069607,UA46060250010015970,79000,Україна,Львівська область,Львівський,Львівська ,Львів,вул. Б. - І. Антонича,12,,0,,0,,Europe/Kyiv,
5049,91,Народний дім Білогорща (91),,49.84449,23.938168,UA46060250010015970,79000,Україна,Львівська область,Львівський,Львівська ,Львів,вул. Білогорща,118,,0,,0,,Europe/Kyiv,
5040,90,Білогорща (90),,49.84569,23.929682,UA46060250010015970,79000,Україна,Львівська область,Львівський,Львівська ,Львів,вул. Білогорща,71,,0,,0,,Europe/Kyiv,
z-724,724,Малковицька (724),,49.873778,23.951225,UA46060250010015970,79000,Україна,Львівська область,Львівський,Львівська ,Львів,вул. Брюховицька,145,,0,,0,,Europe/Kyiv,
z-718,718,Брюховицька (718),,49.859911,23.970902,UA46060250010015970,79000,Україна,Львівська область,Львівський,Львівська ,Львів,вул. Брюховицька,4,,0,,0,,Europe/Kyiv,
4659,1055,"Брюховичі, Ягідна (1055)",,49.902589,23.930982,UA46060250040091928,79491,Україна,Львівська область,Львівський,Львівська ,Брюховичі,вул. В. Івасюка,45,,0,,0,,Europe/Kyiv,
4658,1056,"Брюховичі, Кардіологічна лікарня (1056)",,49.905087,23.927563,UA46060250040091928,79491,Україна,Львівська область,Львівський,Львівська ,Брюховичі,вул. В. Івасюка,69,,0,,0,,Europe/Kyiv,
4657,1054,"Брюховичі, Ягідна (1054)",,49.903691,23.929524,UA46060250040091928,79491,Україна,Львівська область,Львівський,Львівська ,Брюховичі,вул. В. Івасюка,32,,0,,0,,Europe/Kyiv,
z-326,326,Поліклініка №2 (326),,49.809545,23.988369,UA46060250010015970,79000,Україна,Львівська область,Львівський,Львівська ,Львів,вул. В. Симоненка,3,,0,,0,,Europe/Kyiv,
4792,622,Струмок (622),,49.857863,24.011624,UA46060250010015970,79000,Україна,Львівська область,Львівський,Львівська ,Львів,вул. Варшавська,44,,0,,0,,Europe/Kyiv,
5109,12,Львівська політехніка (12),,49.834546,24.016457,UA46060250010015970,79000,Україна,Львівська область,Львівський,Львівська ,Львів,вул. Генерала Т. Чупринки,,"вул. С. Бандери, 11",0,,0,,Europe/Kyiv,
4848,111,Приміський вокзал (111),,49.83574,23.995594,UA46060250010015970,79000,Україна,Львівська область,Львівський,Львівська ,Львів,вул. Городоцька,169,навпроти №169,0,,0,,Europe/Kyiv,
z-41,41,Театр опери та балету (41),,49.844326,24.025034,UA46060250010015970,79000,Україна,Львівська область,Львівський,Львівська ,Львів,вул. Городоцька,3,,0,,0,,Europe/Kyiv,
5182,759,Дністерська (759),,49.818116,24.057961,UA46060250010015970,79000,Україна,Львівська область,Львівський,Львівська ,Львів,вул. Дністерська,1,,0,,0,,Europe/Kyiv,
5123,366,Дунайська (366),,49.816622,24.050859,UA46060250010015970,79000,Україна,Львівська область,Львівський,Львівська ,Львів,вул. Дністерська,17,,0,,0,,Europe/Kyiv,
5181,760,Дністерська (760),,49.818161,24.057797,UA46060250010015970,79000,Україна,Львівська область,Львівський,Львівська ,Львів,вул. Дністерська,2,,0,,0,,Europe/Kyiv,
5072,1011,Винники. Козацька (1011),,49.802796,24.12923,UA46060250010015970,79000,Україна,Львівська область,Львівський,Львівська ,Львів,вул. Забава,46,,0,,0,,Europe/Kyiv,
5071,1013,"Винники, Шептицьких (1013)",,49.802342,24.134892,UA46060250010015970,79000,Україна,Львівська область,Львівський,Львівська ,Львів,вул. Забава,8а,,0,,0,,Europe/Kyiv,
4649,652,Дитячий диспансер (652),,49.877615,24.004027,UA46060250010015970,79000,Україна,Львівська область,Львівський,Львівська ,Львів,вул. Замарстинівська,274,,0,,0,,Europe/Kyiv,
5095,660,Миколайчука (660),,49.865712,24.044266,UA46060250010015970,79000,Україна,Львівська область,Львівський,Львівська ,Львів,вул. І. Миколайчука,,,0,,0,,Europe/Kyiv,
4944,236,Кукурудзяна (236),,49.862363,24.060637,UA46060250010015970,79000,Україна,Львівська область,Львівський,Львівська ,Львів,вул. Кукурудзяна,,перехрестя з вул. Ковельською,0,,0,,Europe/Kyiv,
4653,1064,"Брюховичі, Пляжна (1064)",,49.905736,23.95718,UA46060250040091928,79491,Україна,Львівська область,Львівський,Львівська ,Брюховичі,вул. Курортна,,перехрестя з вул. Пляжна,0,,0,,Europe/Kyiv,
4744,143,Ливарна (143),,49.84459,23.984318,UA46060250010015970,79000,Україна,Львівська область,Львівський,Львівська ,Львів,вул. Левандівська,15,,0,,0,,Europe/Kyiv,
4772,144,Ливарна (144),,49.84449,23.983653,UA46060250010015970,79000,Україна,Львівська область,Львівський,Львівська ,Львів,вул. Левандівська,20,,0,,0,,Europe/Kyiv,
z-412,412,Львівхолод (412),,49.807496,24.054619,UA46060250010015970,79000,Україна,Львівська область,Львівський,Львівська ,Львів,вул. Луганська,3,,0,,0,,Europe/Kyiv,
4652,1065,"Брюховичі, Курортна (1065)",,49.903743,23.96022,UA46060250040091928,79491,Україна,Львівська область,Львівський,Львівська ,Брюховичі,вул. Львівська,20,,0,,0,,Europe/Kyiv,
5006,663,Хвильового (663),,49.870428,24.04286,UA46060250010015970,79000,Україна,Львівська область,Львівський,Львівська ,Львів,вул. М. Хвильового,,"вул. І. Миколайчука, 65",0,,0,,Europe/Kyiv,
4802,420,Сквер імені Павла Думанського (420),,49.813789,24.035817,UA46060250010015970,79000,Україна,Львівська область,Львівський,Львівська ,Львів,вул. П. Мирного,26,,0,,0,,Europe/Kyiv,
z-666,666,Тичини (666),,49.868875,24.034111,UA46060250010015970,79000,Україна,Львівська область,Львівський,Львівська ,Львів,вул. П. Тичини,14,,0,,0,,Europe/Kyiv,
5155,755,Протезний завод (755),,49.836676,23.968504,UA46060250010015970,79000,Україна,Львівська область,Львівський,Львівська ,Львів,вул. Рудненська,10,навпроти №10 ,0,,0,,Europe/Kyiv,
5039,172,Петлюри (172),,49.819815,23.980696,UA46060250010015970,79000,Україна,Львівська область,Львівський,Львівська ,Львів,вул. С. Петлюри,30,,0,,0,,Europe/Kyiv,
5034,173,Петлюри (173),,49.81981,23.980874,UA46060250010015970,79000,Україна,Львівська область,Львівський,Львівська ,Львів,вул. С. Петлюри,37,,0,,0,,Europe/Kyiv,
5035,171,Садова (171),,49.822107,23.979332,UA46060250010015970,79000,Україна,Львівська область,Львівський,Львівська ,Львів,вул. С. Петлюри,17,,0,,0,,Europe/Kyiv,
4830,426,Кавалерідзе (426),,49.794394,24.063186,UA46060250010015970,79000,Україна,Львівська область,Львівський,Львівська ,Львів,вул. Сихівська,20,,0,,0,,Europe/Kyiv,
z-290,290,Знесіння (290),,49.851197,24.059023,UA46060250010015970,79000,Україна,Львівська область,Львівський,Львівська ,Львів,вул. Старознесенська,23,,0,,0,,Europe/Kyiv,
4794,696,Ковча (696),,49.854006,23.985048,UA46060250010015970,79000,Україна,Львівська область,Львівський,Львівська ,Львів,вул. Т. Шевченка,154б,,0,,0,,Europe/Kyiv,
4769,186,Ковча (186),,49.853766,23.9853,UA46060250010015970,79000,Україна,Львівська область,Львівський,Львівська ,Львів,вул. Т. Шевченка,154б,навпроти №154Б,0,,0,,Europe/Kyiv,
4755,694,Рясне-1 (694),,49.868021,23.952556,UA46060250010015970,79000,Україна,Львівська область,Львівський,Львівська ,Львів,вул. Т. Шевченка,358,,0,,0,,Europe/Kyiv,
4885,681,Ярослава Мудрого (681),,49.845348,24.008448,UA46060250010015970,79000,Україна,Львівська область,Львівський,Львівська ,Львів,вул. Т. Шевченка,60,,0,,0,,Europe/Kyiv,
z-82,82,Магнус (82),,49.844436,24.024321,UA46060250010015970,79000,Україна,Львівська область,Львівський,Львівська ,Львів,вул. Городоцька,,"вул. Городоцька, 4",0,,0,,Europe/Kyiv,
5167,1183,Лисиничі Центр (1183),,49.835385,24.12157,UA46060250130067842,81126,Україна,Львівська область,Львівський,Львівська ,Лисиничі,вул. Винниківська,,,0,,0,,Europe/Kyiv,
4670,6,Куліша (6),,49.849412,24.025209,UA46060250010015970,79000,Україна,Львівська область,Львівський,Львівська ,Львів,просп. В. Чорновола,41,,0,,0,,Europe/Kyiv,
4965,1073,Брюховичі. Вокзал (1073),,49.903605,23.940046,UA46060250040091928,79491,Україна,Львівська область,Львівський,Львівська ,Брюховичі,вул. Незалежності,,перехрестя з вул. Курортна,0,,0,,Europe/Kyiv,
z-83,83,П’ясецького (83),,49.825571,23.936575,UA46060250010015970,79000,Україна,Львівська область,Львівський,Львівська ,Львів,вул. Генерала В. Курмановича,,"навпроти А. П’ясецького, 1-А",0,,0,,Europe/Kyiv,
5197,1441,Збиранка.Центр (1441),,49.900583,24.018307,UA46060250120043789,82823,Україна,Львівська область,Львівський,Львівська ,Збиранка,вул. Нова,,,0,,0,,Europe/Kyiv,
2560987,594,Галицьке перехрестя (594),,49.875254,24.061984,UA46060250010015970,79000,Україна,Львівська область,Львівський,Львівська ,Львів,вул. Б. Хмельницького,289,,0,,0,,Europe/Kyiv,
4680,586,Фабрика повидла (586),,49.855379,24.044974,UA46060250010015970,79000,Україна,Львівська область,Львівський,Львівська ,Львів,вул. Б. Хмельницького,,,0,,0,,Europe/Kyiv,
2561015,1081,"Брюховичі, Весняна (1081)",,49.89932,23.961563,UA46060250040091928,79491,Україна,Львівська область,Львівський,Львівська ,Брюховичі,вул. Весняна,,,0,,0,,Europe/Kyiv,
2561016,1082,"Брюховичі, Весняна (1082)",,49.89922,23.961552,UA46060250040091928,79491,Україна,Львівська область,Львівський,Львівська ,Брюховичі,вул. Весняна,,,0,,0,,Europe/Kyiv,
4661,1057,"Брюховичі, Прилуцька (1057)",,49.90203,23.93214,UA46060250040091928,79491,Україна,Львівська область,Львівський,Львівська ,Брюховичі,вул. В. Івасюка,28,,0,,0,,Europe/Kyiv,
2562644,1094,"Брюховичі, Прилуцька (1094)",,49.90181,23.93235,UA46060250040091928,79491,Україна,Львівська область,Львівський,Львівська ,Брюховичі,вул. В. Івасюка,30,,0,,0,,Europe/Kyiv,
z-1050,1050,"Брюховичі, Невеличука (1050)",,49.908355,23.931248,UA46060250040091928,79491,Україна,Львівська область,Львівський,Львівська ,Брюховичі,вул. Незалежності,58,навпроти №58,0,,0,,Europe/Kyiv,
2562645,1070,"Брюховичі, Офіс Громади (1070)",,49.902661,23.941323,UA46060250040091928,79491,Україна,Львівська область,Львівський,Львівська ,Брюховичі,вул. Незалежності,27,,0,,0,,Europe/Kyiv,
4960,1071,"Брюховичі, Малинова (1071)",,49.89978,23.9429,UA46060250040091928,79491,Україна,Львівська область,Львівський,Львівська ,Брюховичі,вул. Незалежності,37,,0,,0,,Europe/Kyiv,
z-1049,1049,"Брюховичі,  Невеличука (1049)",,49.90849,23.931034,UA46060250040091928,79491,Україна,Львівська область,Львівський,Львівська ,Брюховичі,вул. Незалежності,58,,0,,0,,Europe/Kyiv,
5198,819,Голосківський цвинтар (819),,49.887951,24.020676,UA46060250010015970,79000,Україна,Львівська область,Львівський,Львівська ,Львів,вул. І. Миколайчука,,,0,,0,,Europe/Kyiv,
2560281,1174,"Великі Грибовичі, Дублянська (1174)",,49.910352,24.069441,UA46060250060064618,80380,Україна,Львівська область,Львівський,Львівська ,Великі Грибовичі,вул. Дублянська,147,,0,,0,,Europe/Kyiv,
2560282,1172,"Великі Грибовичі, Садова (1172)",,49.911433,24.054254,UA46060250060064618,80380,Україна,Львівська область,Львівський,Львівська ,Великі Грибовичі,вул. Дублянська,2,,0,,0,,Europe/Kyiv,
44944,1021,"Винники, Винна Гора (1021)",,49.823065,24.136904,UA46060250020038547,79495,Україна,Львівська область,Львівський,Львівська ,Винники,вул. В. Івасюка,19,,0,,0,,Europe/Kyiv,
z-1043,1043,"Винники, Парк  Вайнберг (1043)",,49.825671,24.155663,UA46060250020038547,79495,Україна,Львівська область,Львівський,Львівська ,Винники,вул. Кільцева,36,навпроти №36,0,,0,,Europe/Kyiv,
z-1042,1042,"Винники, Кільцева (1042)",,49.824306,24.154724,UA46060250020038547,79495,Україна,Львівська область,Львівський,Львівська ,Винники,вул. Кільцева,17,,0,,0,,Europe/Kyiv,
z-1039,1039,"Винники, Гаражі (1039)",,49.824775,24.148298,UA46060250020038547,79495,Україна,Львівська область,Львівський,Львівська ,Винники,вул. Кільцева,5,,0,,0,,Europe/Kyiv,
z-1040,1040,"Винники, Гаражі (1040)	",,49.824783,24.147818,UA46060250020038547,79495,Україна,Львівська область,Львівський,Львівська ,Винники,вул. Кільцева,5,,0,,0,,Europe/Kyiv,
z-1041,1041,"Винники, Кільцева (1041)",,49.824581,24.15289,UA46060250020038547,79495,Україна,Львівська область,Львівський,Львівська ,Винники,вул. Кільцева,9,,0,,0,,Europe/Kyiv,
44098,1030,"Винники, Стадіон (1030)",,49.80572,24.137092,UA46060250020038547,79495,Україна,Львівська область,Львівський,Львівська ,Винники,вул. І. Франка,110,,0,,0,,Europe/Kyiv,
44243,763,Розточчя (763),,49.877875,24.042651,UA46060250010015970,79000,Україна,Львівська область,Львівський,Львівська ,Львів,вул. В. Щурата,,"вул. Розточчя, 168",0,,0,,Europe/Kyiv,
44806,197-01,Погулянка (197-01),,49.828997,24.056159,UA46060250010015970,79000,Україна,Львівська область,Львівський,Львівська ,Львів,вул. А. Вахнянина,27,,0,,0,,Europe/Kyiv,
5092,572,Лінкольна (572),,49.866573,24.041219,UA46060250010015970,79000,Україна,Львівська область,Львівський,Львівська ,Львів,вул. А. Лінкольна,45,навпроти №45,0,,0,,Europe/Kyiv,
4996,573,Міртова (573),,49.864477,24.028044,UA46060250010015970,79000,Україна,Львівська область,Львівський,Львівська ,Львів,вул. А. Лінкольна,4а,навпроти №4А,0,,0,,Europe/Kyiv,
5004,571,Міртова (571),,49.864602,24.028382,UA46060250010015970,79000,Україна,Львівська область,Львівський,Львівська ,Львів,вул. А. Лінкольна,4а,,0,,0,,Europe/Kyiv,
5096,570,Лінкольна (570),,49.866649,24.04117,UA46060250010015970,79000,Україна,Львівська область,Львівський,Львівська ,Львів,вул. А. Лінкольна,45,,0,,0,,Europe/Kyiv,
44235,306,Курмановича (306),,49.826529,23.941741,UA46060250010015970,79000,Україна,Львівська область,Львівський,Львівська ,Львів,вул. Авіаційна,,під мостом,0,,0,,Europe/Kyiv,
5012,86,Авіаційна (86),,49.824858,23.939402,UA46060250010015970,79000,Україна,Львівська область,Львівський,Львівська ,Львів,вул. Авіаційна,1,,0,,0,,Europe/Kyiv,
5162,85,Станція Скнилів (85),,49.822028,23.936621,UA46060250010015970,79000,Україна,Львівська область,Львівський,Львівська ,Львів,вул. Авіаційна,2,,0,,0,,Europe/Kyiv,
5011,85-01,Станція Скнилів (85-01),,49.822071,23.93631,UA46060250010015970,79000,Україна,Львівська область,Львівський,Львівська ,Львів,вул. Авіаційна,2,,0,,0,,Europe/Kyiv,
4954,470,Площа Лема (470),,49.83155,24.016486,UA46060250010015970,79000,Україна,Львівська область,Львівський,Львівська ,Львів,вул. Академіка А. Сахарова,,"вул. І. Богуна, 12",0,,0,,Europe/Kyiv,
z-758,758,Куликівська (758),,49.82402,24.012224,UA46060250010015970,79000,Україна,Львівська область,Львівський,Львівська ,Львів,вул. Академіка А. Сахарова,23,,0,,0,,Europe/Kyiv,
z-757,757,Куликівська (757),,49.824076,24.011972,UA46060250010015970,79000,Україна,Львівська область,Львівський,Львівська ,Львів,вул. Академіка А. Сахарова,76,,0,,0,,Europe/Kyiv,
z-0472,0472,Горбачевського (0472),,49.825446,24.010786,UA46060250010015970,79000,Україна,Львівська область,Львівський,Львівська ,Львів,вул. Академіка А. Сахарова,56,,0,,0,,Europe/Kyiv,
z-471,471,Горбачевського (471),,49.825892,24.010631,UA46060250010015970,79000,Україна,Львівська область,Львівський,Львівська ,Львів,вул. Академіка А. Сахарова,17,,0,,0,,Europe/Kyiv,
z-473,473,Кредобанк (473),,49.821556,24.01651,UA46060250010015970,79000,Україна,Львівська область,Львівський,Львівська ,Львів,вул. Академіка А. Сахарова,78,,0,,0,,Europe/Kyiv,
45249,354,Антонича (354),,49.785185,24.069741,UA46060250010015970,79000,Україна,Львівська область,Львівський,Львівська ,Львів,вул. Б. - І. Антонича,8,,0,,0,,Europe/Kyiv,
4623,477,Антоновича (477),,49.825602,23.990461,UA46060250010015970,79000,Україна,Львівська область,Львівський,Львівська ,Львів,вул. Б. - І. Антонича,4,,0,,0,,Europe/Kyiv,
4625,475,Мельника (475),,49.831671,24.001206,UA46060250010015970,79000,Україна,Львівська область,Львівський,Львівська ,Львів,вул. Б. - І. Антонича,49,,0,,0,,Europe/Kyiv,
4624,476,Залізняка (476),,49.829827,23.998137,UA46060250010015970,79000,Україна,Львівська область,Львівський,Львівська ,Львів,вул. Б. - І. Антонича,77,,0,,0,,Europe/Kyiv,
4644,576,Чигиринська (576),,49.870596,24.055314,UA46060250010015970,79000,Україна,Львівська область,Львівський,Львівська ,Львів,вул. Б. Грінченка,1,,0,,0,,Europe/Kyiv,
5094,639,Грінченка (639),,49.873166,24.049864,UA46060250010015970,79000,Україна,Львівська область,Львівський,Львівська ,Львів,вул. Б. Грінченка,13,,0,,0,,Europe/Kyiv,
45009,577,Грінченка (577),,49.872018,24.052114,UA46060250010015970,79000,Україна,Львівська область,Львівський,Львівська ,Львів,вул. Б. Грінченка,13а,,0,,0,,Europe/Kyiv,
4564,575,Чигиринська (575),,49.870691,24.055434,UA46060250010015970,79000,Україна,Львівська область,Львівський,Львівська ,Львів,вул. Б. Грінченка,2а,,0,,0,,Europe/Kyiv,
4643,639-1,Грінченка (639-1),,49.872831,24.050309,UA46060250010015970,79000,Україна,Львівська область,Львівський,Львівська ,Львів,вул. Б. Грінченка,48,,0,,0,,Europe/Kyiv,
5142,574,Грінченка (574),,49.872029,24.052296,UA46060250010015970,79000,Україна,Львівська область,Львівський,Львівська ,Львів,вул. Б. Грінченка,6,,0,,0,,Europe/Kyiv,
4708,587,Автостанція №2 (587),,49.862323,24.051003,UA46060250010015970,79000,Україна,Львівська область,Львівський,Львівська ,Львів,вул. Б. Хмельницького,,,0,,0,,Europe/Kyiv,
4677,591,Автостанція №2 (591),,49.864118,24.05243,UA46060250010015970,79000,Україна,Львівська область,Львівський,Львівська ,Львів,вул. Б. Хмельницького,,,0,,0,,Europe/Kyiv,
5055,1001,"Винники, Забава (1001)",,49.809057,24.120148,UA46060250010015970,79000,Україна,Львівська область,Львівський,Львівська ,Львів,вул. Б. Хмельницького,,,0,,0,,Europe/Kyiv,
4679,588,Височана (588),,49.85811,24.047269,UA46060250010015970,79000,Україна,Львівська область,Львівський,Львівська ,Львів,вул. Б. Хмельницького,,,0,,0,,Europe/Kyiv,
4676,589,Скейт-парк (589),,49.868626,24.05632,UA46060250010015970,79000,Україна,Львівська область,Львівський,Львівська ,Львів,вул. Б. Хмельницького,212,,0,,0,,Europe/Kyiv,
4678,590,Радіоринок (590),,49.861909,24.050477,UA46060250010015970,79000,Україна,Львівська область,Львівський,Львівська ,Львів,вул. Б. Хмельницького,,,0,,0,,Europe/Kyiv,
4706,583,Фабрика повидла (583),,49.856197,24.0458,UA46060250010015970,79000,Україна,Львівська область,Львівський,Львівська ,Львів,вул. Б. Хмельницького,122,,0,,0,,Europe/Kyiv,
42736,584,Остряниці (584),,49.85344,24.038427,UA46060250010015970,79000,Україна,Львівська область,Львівський,Львівська ,Львів,вул. Б. Хмельницького,127,,0,,0,,Europe/Kyiv,
4707,585,Височана (585),,49.858291,24.047576,UA46060250010015970,79000,Україна,Львівська область,Львівський,Львівська ,Львів,вул. Б. Хмельницького,158,,0,,0,,Europe/Kyiv,
42753,2,Площа Старий Ринок (2),,49.847064,24.028693,UA46060250010015970,79000,Україна,Львівська область,Львівський,Львівська ,Львів,вул. Б. Хмельницького,20,,0,,0,,Europe/Kyiv,
44938,738,Скейт-парк (738),,49.869439,24.056792,UA46060250010015970,79000,Україна,Львівська область,Львівський,Львівська ,Львів,вул. Б. Хмельницького,257,,0,,0,,Europe/Kyiv,
5110,592,Назарука (592),,49.870981,24.058068,UA46060250010015970,79000,Україна,Львівська область,Львівський,Львівська ,Львів,вул. Б. Хмельницького,267,,0,,0,,Europe/Kyiv,
4563,593,Галицьке перехрестя (593),,49.873515,24.060214,UA46060250010015970,79000,Україна,Львівська область,Львівський,Львівська ,Львів,вул. Б. Хмельницького,273,,0,,0,,Europe/Kyiv,
4645,595,Галицьке перехрестя (595),,49.873225,24.060123,UA46060250010015970,79000,Україна,Львівська область,Львівський,Львівська ,Львів,вул. Б. Хмельницького,286,,0,,0,,Europe/Kyiv,
42739,579,Залізничний вокзал Підзамче (579),,49.851868,24.032003,UA46060250010015970,79000,Україна,Львівська область,Львівський,Львівська ,Львів,вул. Б. Хмельницького,52,,0,,0,,Europe/Kyiv,
4898,312,Залізничний вокзал Підзамче (312),,49.852179,24.032958,UA46060250010015970,79000,Україна,Львівська область,Львівський,Львівська ,Львів,вул. Б. Хмельницького,56,,0,,0,,Europe/Kyiv,
42737,580,Остряниці (580),,49.853163,24.036477,UA46060250010015970,79000,Україна,Львівська область,Львівський,Львівська ,Львів,вул. Б. Хмельницького,80,,0,,0,,Europe/Kyiv,
42738,581,Залізничний вокзал Підзамче (581),,49.852392,24.033298,UA46060250010015970,79000,Україна,Львівська область,Львівський,Львівська ,Львів,вул. Б. Хмельницького,87,,0,,0,,Europe/Kyiv,
4975,854,Барвінських (854),,49.844165,24.044062,UA46060250010015970,79000,Україна,Львівська область,Львівський,Львівська ,Львів,вул. Барвінських,,"вул. М. Лисенка, 31",0,,0,,Europe/Kyiv,
z-860,860,На вимогу (860),,49.8444864,23.9544329,UA46060250010015970,79000,Україна,Львівська область,Львівський,Львівська ,Львів,вул. Білогорща,," вул. Роксоляни, 149",0,,0,,Europe/Kyiv,
z-861,861,На вимогу (861),,49.8443905,23.9546877,UA46060250010015970,79000,Україна,Львівська область,Львівський,Львівська ,Львів,вул. Білогорща,149,"навпроти вул. Роксоляни, 149",0,,0,,Europe/Kyiv,
5048,92,Лаврівського (92),,49.845062,23.93271,UA46060250010015970,79000,Україна,Львівська область,Львівський,Львівська ,Львів,вул. Білогорща,144,,0,,0,,Europe/Kyiv,
5042,87,Народний дім Білогорща (87),,49.844416,23.93801,UA46060250010015970,79000,Україна,Львівська область,Львівський,Львівська ,Львів,вул. Білогорща,25,,0,,0,,Europe/Kyiv,
5041,89,Лаврівського (89),,49.844967,23.932509,UA46060250010015970,79000,Україна,Львівська область,Львівський,Львівська ,Львів,вул. Білогорща,57,,0,,0,,Europe/Kyiv,
5173,90-01,Білогорща (90-01),,49.845825,23.929483,UA46060250010015970,79000,Україна,Львівська область,Львівський,Львівська ,Львів,вул. Білогорща,71,,0,,0,,Europe/Kyiv,
4705,582,Промислова (582),,49.853732,24.041782,UA46060250010015970,79000,Україна,Львівська область,Львівський,Львівська ,Львів,вул. Б. Хмельницького,149,,0,,0,,Europe/Kyiv,
2562712,345,Пластова (345),,49.859337,24.072303,UA46060250010015970,79000,Україна,Львівська область,Львівський,Львівська ,Львів,вул. Богданівська,,,0,,0,,Europe/Kyiv,
2562713,346,Пластова (346),,49.859695,24.071957,UA46060250010015970,79000,Україна,Львівська область,Львівський,Львівська ,Львів,вул. Богданівська,,,0,,0,,Europe/Kyiv,
4921,201,Старознесенська (201),,49.849194,24.083147,UA46060250010015970,79000,Україна,Львівська область,Львівський,Львівська ,Львів,вул. Богданівська,,"вул. Старознесенська, 161",0,,0,,Europe/Kyiv,
4936,202,Старознесенська (202),,49.848987,24.083217,UA46060250010015970,79000,Україна,Львівська область,Львівський,Львівська ,Львів,вул. Богданівська,,"вул. Старознесенська, 192",0,,0,,Europe/Kyiv,
4920,203,Гайдучка (203),,49.852854,24.077547,UA46060250010015970,79000,Україна,Львівська область,Львівський,Львівська ,Львів,вул. Богданівська,100,навпроти №100,0,,0,,Europe/Kyiv,
2560926,309,Гаврилишина (309),,49.84336,24.08614,UA46060250010015970,79000,Україна,Львівська область,Львівський,Львівська ,Львів,вул. Богданівська,2,"навпроти вул. вул. Богдана Гаврилишина, 2",0,,0,,Europe/Kyiv,
4937,204,Гайдучка (204),,49.853231,24.077375,UA46060250010015970,79000,Україна,Львівська область,Львівський,Львівська ,Львів,вул. Богданівська,,перехрестя з вул. С.Гайдучка,0,,0,,Europe/Kyiv,
2560925,308,Гаврилишина (308),,49.843168,24.086237,UA46060250010015970,79000,Україна,Львівська область,Львівський,Львівська ,Львів,вул. Богданівська,,,0,,0,,Europe/Kyiv,
2560991,732,Монгольська (732),,49.850651,24.079408,UA46060250010015970,79000,Україна,Львівська область,Львівський,Львівська ,Львів,вул. Богданівська,135,навпроти №135,0,,0,,Europe/Kyiv,
4919,199,Авторинок (199),,49.854618,24.076294,UA46060250010015970,79000,Україна,Львівська область,Львівський,Львівська ,Львів,вул. Богданівська,11,,0,,0,,Europe/Kyiv,
2560988,731,Монгольська (731),,49.850751,24.079086,UA46060250010015970,79000,Україна,Львівська область,Львівський,Львівська ,Львів,вул. Богданівська,135,,0,,0,,Europe/Kyiv,
4935,198,Богданівська (198),,49.84048,24.085695,UA46060250010015970,79000,Україна,Львівська область,Львівський,Львівська ,Львів,вул. Богданівська,2,,0,,0,,Europe/Kyiv,
4938,200,Авторинок (200),,49.854268,24.076785,UA46060250010015970,79000,Україна,Львівська область,Львівський,Львівська ,Львів,вул. Богданівська,42,,0,,0,,Europe/Kyiv,
z-720,720,Фанерний завод (720),,49.86474,23.969067,UA46060250010015970,79000,Україна,Львівська область,Львівський,Львівська ,Львів,вул. Брюховицька,37,навпроти №37,0,,0,,Europe/Kyiv,
z-719,719,Фанерний завод (719),,49.86477,23.968874,UA46060250010015970,79000,Україна,Львівська область,Львівський,Львівська ,Львів,вул. Брюховицька,37,,0,,0,,Europe/Kyiv,
z-0722,0722,Школа №94 (0722),,49.872734,23.957598,UA46060250010015970,79000,Україна,Львівська область,Львівський,Львівська ,Львів,вул. Брюховицька,103,,0,,0,,Europe/Kyiv,
z-723,723,Малковицька (723),,49.873868,23.951553,UA46060250010015970,79000,Україна,Львівська область,Львівський,Львівська ,Львів,вул. Брюховицька,196,,0,,0,,Europe/Kyiv,
z-721,721,Школа №94 (721),,49.872726,23.958171,UA46060250010015970,79000,Україна,Львівська область,Львівський,Львівська ,Львів,вул. Брюховицька,94,,0,,0,,Europe/Kyiv,
44234,736,Коледж телекомунікацій (736),,49.80959,24.008761,UA46060250010015970,79000,Україна,Львівська область,Львівський,Львівська ,Львів,вул. Володимира Великого,27,,0,,0,,Europe/Kyiv,
2562811,851,Підвальна (851),,49.842491,24.036182,UA46060250010015970,79000,Україна,Львівська область,Львівський,Львівська ,Львів,вул. В. Винниченка,22,,0,,0,,Europe/Kyiv,
4660,1053,"Брюховичі, Арктична (1053)",,49.9012,23.935926,UA46060250040091928,79491,Україна,Львівська область,Львівський,Львівська ,Брюховичі,вул. В. Івасюка,19,,0,,0,,Europe/Kyiv,
4789,602,Замарстинівська (602),,49.85965,24.026139,UA46060250010015970,79000,Україна,Львівська область,Львівський,Львівська ,Львів,вул. В. Липинського,,"вул. Покутська, 1",0,,0,,Europe/Kyiv,
4778,603,Бетховена (603),,49.863391,24.032652,UA46060250010015970,79000,Україна,Львівська область,Львівський,Львівська ,Львів,вул. В. Липинського,3,навпроти №36,0,,0,,Europe/Kyiv,
4787,604,БТІ (604),,49.86492,24.040645,UA46060250010015970,79000,Україна,Львівська область,Львівський,Львівська ,Львів,вул. В. Липинського,54,навпроти №54,0,,0,,Europe/Kyiv,
4786,607,Миколайчука (607),,49.865214,24.043638,UA46060250010015970,79000,Україна,Львівська область,Львівський,Львівська ,Львів,вул. В. Липинського,,перехрестя з вул. І. Миколайчука,0,,0,,Europe/Kyiv,
4777,598,Замарстинівська (598),,49.860559,24.027472,UA46060250010015970,79000,Україна,Львівська область,Львівський,Львівська ,Львів,вул. В. Липинського,26,,0,,0,,Europe/Kyiv,
4788,599,Бетховена (599),,49.863678,24.033671,UA46060250010015970,79000,Україна,Львівська область,Львівський,Львівська ,Львів,вул. В. Липинського,44,,0,,0,,Europe/Kyiv,
4790,596,Окуневського (596),,49.856216,24.019434,UA46060250010015970,79000,Україна,Львівська область,Львівський,Львівська ,Львів,вул. В. Липинського,5,,0,,0,,Europe/Kyiv,
4779,600,БТІ (600),,49.864989,24.042442,UA46060250010015970,79000,Україна,Львівська область,Львівський,Львівська ,Львів,вул. В. Липинського,54,,0,,0,,Europe/Kyiv,
4776,597,Шевченківська РА (597),,49.857499,24.023241,UA46060250010015970,79000,Україна,Львівська область,Львівський,Львівська ,Львів,вул. В. Липинського,12,,0,,0,,Europe/Kyiv,
4780,601,Автостанція №2 (601),,49.865131,24.050676,UA46060250010015970,79000,Україна,Львівська область,Львівський,Львівська ,Львів,вул. В. Липинського,60,,0,,0,,Europe/Kyiv,
4785,605,Автостанція №2 (605),,49.864954,24.051669,UA46060250010015970,79000,Україна,Львівська область,Львівський,Львівська ,Львів,вул. В. Липинського,60,,0,,0,,Europe/Kyiv,
5009,356,Лікарня Святого Луки (356),,49.811328,24.050435,UA46060250010015970,79000,Україна,Львівська область,Львівський,Львівська ,Львів,вул. В. Навроцького,21,,0,,0,,Europe/Kyiv,
5013,355,Лікарня Святого Луки (355),,49.811232,24.050529,UA46060250010015970,79000,Україна,Львівська область,Львівський,Львівська ,Львів,вул. В. Навроцького,4,,0,,0,,Europe/Kyiv,
z-358,358,Литвиненка (358),,49.813803,24.044217,UA46060250010015970,79000,Україна,Львівська область,Львівський,Львівська ,Львів,вул. В. Стуса,,"вул. Д. Карбишева, 8",0,,0,,Europe/Kyiv,
z-5,5,Стадіон Україна (5),,49.817951,24.043984,UA46060250010015970,79000,Україна,Львівська область,Львівський,Львівська ,Львів,вул. В. Стуса,22а,,0,,0,,Europe/Kyiv,
z-357,357,Стадіон Україна (357),,49.818322,24.043842,UA46060250010015970,79000,Україна,Львівська область,Львівський,Львівська ,Львів,вул. В. Стуса,49,,0,,0,,Europe/Kyiv,
4793,627,Панча (627),,49.862171,24.007643,UA46060250010015970,79000,Україна,Львівська область,Львівський,Львівська ,Львів,вул. Варшавська,,"вул. П. Панча, 26",0,,0,,Europe/Kyiv,
44162,739,Голоско (739),,49.86929,24.018087,UA46060250010015970,79000,Україна,Львівська область,Львівський,Львівська ,Львів,вул. Варшавська,,"навпроти вул. Ф. Сеньковича, 40",0,,0,,Europe/Kyiv,
5021,624,Школа № 23 (624),,49.86548,24.011159,UA46060250010015970,79000,Україна,Львівська область,Львівський,Львівська ,Львів,вул. Варшавська,126,,0,,0,,Europe/Kyiv,
2560972,812,Малоголосківська (812),,49.864484,24.007337,UA46060250010015970,79000,Україна,Львівська область,Львівський,Львівська ,Львів,вул. Варшавська,114,,0,,0,,Europe/Kyiv,
2560973,813,Малоголосківська (813),,49.864885,24.008217,UA46060250010015970,79000,Україна,Львівська область,Львівський,Львівська ,Львів,вул. Варшавська,133,,0,,0,,Europe/Kyiv,
5136,625,Школа № 23 (625),,49.865506,24.010899,UA46060250010015970,79000,Україна,Львівська область,Львівський,Львівська ,Львів,вул. Варшавська,155,,0,,0,,Europe/Kyiv,
45041,621,Бальзака (621),,49.855064,24.014472,UA46060250010015970,79000,Україна,Львівська область,Львівський,Львівська ,Львів,вул. Варшавська,2,,0,,0,,Europe/Kyiv,
4638,614,Голоско (614),,49.869786,24.018423,UA46060250010015970,79000,Україна,Львівська область,Львівський,Львівська ,Львів,вул. Варшавська,29,,0,,0,,Europe/Kyiv,
45105,197,Погулянка (197),,49.829772,24.056057,UA46060250010015970,79000,Україна,Львівська область,Львівський,Львівська ,Львів,вул. А. Вахнянина,27,,0,,0,,Europe/Kyiv,
4721,125,Поліклініка №5 (125),,49.826297,23.967919,UA46060250010015970,79000,Україна,Львівська область,Львівський,Львівська ,Львів,вул. І. Виговського,17,,0,,0,,Europe/Kyiv,
4719,128,Любінська-Виговського (128),,49.819621,23.969861,UA46060250010015970,79000,Україна,Львівська область,Львівський,Львівська ,Львів,вул. І. Виговського,41,,0,,0,,Europe/Kyiv,
4718,129,Скнилівський парк (129),,49.816714,23.97235,UA46060250010015970,79000,Україна,Львівська область,Львівський,Львівська ,Львів,вул. І. Виговського,47,,0,,0,,Europe/Kyiv,
4717,130,Південний (130),,49.813671,23.976856,UA46060250010015970,79000,Україна,Львівська область,Львівський,Львівська ,Львів,вул. І. Виговського,69,,0,,0,,Europe/Kyiv,
4775,629,Ковча (629),,49.854037,23.986405,UA46060250010015970,79000,Україна,Львівська область,Львівський,Львівська ,Львів,вул. Винниця,,"вул. Т. Шевченка, 154",0,,0,,Europe/Kyiv,
44255,777,Петрицького (777),,49.86174,23.999736,UA46060250010015970,79000,Україна,Львівська область,Львівський,Львівська ,Львів,вул. Винниця,2,,0,,0,,Europe/Kyiv,
45021,762,Винниця (762),,49.862057,23.993744,UA46060250010015970,79000,Україна,Львівська область,Львівський,Львівська ,Львів,вул. Винниця,42,,0,,0,,Europe/Kyiv,
4749,761,Винниця (761),,49.861863,23.99193,UA46060250010015970,79000,Україна,Львівська область,Львівський,Львівська ,Львів,вул. Винниця,60,,0,,0,,Europe/Kyiv,
44256,778,Петрицького (778),,49.861477,24.000374,UA46060250010015970,79000,Україна,Львівська область,Львівський,Львівська ,Львів,вул. Винниця,7,,0,,0,,Europe/Kyiv,
44965,362,Віденська (362),,49.812179,24.04212,UA46060250010015970,79000,Україна,Львівська область,Львівський,Львівська ,Львів,вул. Віденська,6а,,0,,0,,Europe/Kyiv,
z-833,833,"Віри, Надії, Любові (833)",,49.876336,24.03642,UA46060250010015970,79000,Україна,Львівська область,Львівський,Львівська ,Львів,"вул. Віри, Надії, Любові",3,навпроти №3,0,,0,,Europe/Kyiv,
z-835,835,Щурата (835),,49.879517,24.035795,UA46060250010015970,79000,Україна,Львівська область,Львівський,Львівська ,Львів,"вул. Віри, Надії, Любові",,"навпроти вул. І. Миколайчука, 28",0,,0,,Europe/Kyiv,
2562632,834,Щурата (834),,49.878791,24.036621,UA46060250010015970,79000,Україна,Львівська область,Львівський,Львівська ,Львів,"вул. Віри, Надії, Любові",,"навпроти вул. І. Миколайчука, 28",0,,0,,Europe/Kyiv,
z-643,643,"Віри, Надії, Любові (643)",,49.877214,24.036305,UA46060250010015970,79000,Україна,Львівська область,Львівський,Львівська ,Львів,"вул. Віри, Надії, Любові",10,,0,,0,,Europe/Kyiv,
5127,665,"Віри, Надії, Любові (665)",,49.876329,24.036399,UA46060250010015970,79000,Україна,Львівська область,Львівський,Львівська ,Львів,"вул. Віри, Надії, Любові",3,,0,,0,,Europe/Kyiv,
4686,486,Океан (486),,49.810497,23.998132,UA46060250010015970,79000,Україна,Львівська область,Львівський,Львівська ,Львів,вул. Володимира Великого,,"вул. Княгині Ольги, 106",0,,0,,Europe/Kyiv,
4688,480,Янева (480),,49.808856,24.012052,UA46060250010015970,79000,Україна,Львівська область,Львівський,Львівська ,Львів,вул. Володимира Великого,21,,0,,0,,Europe/Kyiv,
4687,483,Володимира Великого (483),,49.809971,24.004725,UA46060250010015970,79000,Україна,Львівська область,Львівський,Львівська ,Львів,вул. Володимира Великого,35,,0,,0,,Europe/Kyiv,
4685,485,Куровця (485),,49.811148,23.991673,UA46060250010015970,79000,Україна,Львівська область,Львівський,Львівська ,Львів,вул. Володимира Великого,111,,0,,0,,Europe/Kyiv,
4697,479,Коледж телекомунікацій (479),,49.809964,24.007037,UA46060250010015970,79000,Україна,Львівська область,Львівський,Львівська ,Львів,вул. Володимира Великого,12,,0,,0,,Europe/Kyiv,
4698,481,Володимира Великого (481),,49.810341,24.001104,UA46060250010015970,79000,Україна,Львівська область,Львівський,Львівська ,Львів,вул. Володимира Великого,22,,0,,0,,Europe/Kyiv,
4699,482,Океан (482),,49.810791,23.996603,UA46060250010015970,79000,Україна,Львівська область,Львівський,Львівська ,Львів,вул. Володимира Великого,22,,0,,0,,Europe/Kyiv,
4700,484,Куровця (484),,49.81144,23.990131,UA46060250010015970,79000,Україна,Львівська область,Львівський,Львівська ,Львів,вул. Володимира Великого,50,,0,,0,,Europe/Kyiv,
2560974,814,Янева (814),,49.808988,24.011889,UA46060250010015970,79000,Україна,Львівська область,Львівський,Львівська ,Львів,вул. Володимира Великого,8а,,0,,0,,Europe/Kyiv,
z-9,9,Стрийський ринок (9),,49.829566,24.032593,UA46060250010015970,79000,Україна,Львівська область,Львівський,Львівська ,Львів,вул. Волоська,13,,0,,0,,Europe/Kyiv,
44169,310,Хоткевича (310),,49.79464,24.044582,UA46060250010015970,79000,Україна,Львівська область,Львівський,Львівська ,Львів,вул. Г. Хоткевича,34,,0,,0,,Europe/Kyiv,
5075,360,Річка Зубра (360),,49.796471,24.039432,UA46060250010015970,79000,Україна,Львівська область,Львівський,Львівська ,Львів,вул. Г. Хоткевича,62,,0,,0,,Europe/Kyiv,
44168,322,Данилюка (322),,49.798217,24.039127,UA46060250010015970,79000,Україна,Львівська область,Львівський,Львівська ,Львів,вул. Г. Хоткевича,68,,0,,0,,Europe/Kyiv,
42747,630,Гайдамацька (630),,49.852013,24.029347,UA46060250010015970,79000,Україна,Львівська область,Львівський,Львівська ,Львів,вул. Гайдамацька,2а,,0,,0,,Europe/Kyiv,
5105,1002,"Винники, ЦНАП (1002)",,49.817237,24.130467,UA46060250020038547,79495,Україна,Львівська область,Львівський,Львівська ,Винники,вул. Галицька,1,,0,,0,,Europe/Kyiv,
5101,1003,"Винники, ЦНАП (1003)",,49.817673,24.130574,UA46060250020038547,79495,Україна,Львівська область,Львівський,Львівська ,Винники,вул. Галицька,12,,0,,0,,Europe/Kyiv,
5112,489,Фабрика Левинського (489),,49.83072,24.008705,UA46060250010015970,79000,Україна,Львівська область,Львівський,Львівська ,Львів,вул. Генерала Т. Чупринки,64,,0,,0,,Europe/Kyiv,
5107,487,Київська (487),,49.831915,24.011191,UA46060250010015970,79000,Україна,Львівська область,Львівський,Львівська ,Львів,вул. Генерала Т. Чупринки,27,,0,,0,,Europe/Kyiv,
5111,488,Київська (488),,49.832436,24.012133,UA46060250010015970,79000,Україна,Львівська область,Львівський,Львівська ,Львів,вул. Генерала Т. Чупринки,36,,0,,0,,Europe/Kyiv,
5106,490,Фабрика Левинського (490),,49.830225,24.007981,UA46060250010015970,79000,Україна,Львівська область,Львівський,Львівська ,Львів,вул. Генерала Т. Чупринки,55а,,0,,0,,Europe/Kyiv,
5108,11,Львівська політехніка (11),,49.834481,24.01621,UA46060250010015970,79000,Україна,Львівська область,Львівський,Львівська ,Львів,вул. Генерала Т. Чупринки,4,,0,,0,,Europe/Kyiv,
4581,491,Площа Берестейської унії (491),,49.833356,24.001318,UA46060250010015970,79000,Україна,Львівська область,Львівський,Львівська ,Львів,вул. Героїв УПА,30,,0,,0,,Europe/Kyiv,
4582,492,Смаль-Стоцького (492),,49.830564,23.995525,UA46060250010015970,79000,Україна,Львівська область,Львівський,Львівська ,Львів,вул. Героїв УПА,76,,0,,0,,Europe/Kyiv,
4583,493,Копистинського (493),,49.829066,23.992118,UA46060250010015970,79000,Україна,Львівська область,Львівський,Львівська ,Львів,вул. Героїв УПА,80,,0,,0,,Europe/Kyiv,
4639,636,Мазепи (636),,49.869354,24.025018,UA46060250010015970,79000,Україна,Львівська область,Львівський,Львівська ,Львів,вул. Гетьмана І. Мазепи,,,0,,0,,Europe/Kyiv,
4640,631,Орлика (631),,49.870628,24.032566,UA46060250010015970,79000,Україна,Львівська область,Львівський,Львівська ,Львів,вул. Гетьмана І. Мазепи,23,,0,,0,,Europe/Kyiv,
4569,637,Мазепи (637),,49.869529,24.025372,UA46060250010015970,79000,Україна,Львівська область,Львівський,Львівська ,Львів,вул. Гетьмана І. Мазепи,1,,0,,0,,Europe/Kyiv,
4568,638,Орлика (638),,49.870518,24.031278,UA46060250010015970,79000,Україна,Львівська область,Львівський,Львівська ,Львів,вул. Гетьмана І. Мазепи,13,,0,,0,,Europe/Kyiv,
4567,632,Ребілітаційний центр Незламні (632),,49.871788,24.039196,UA46060250010015970,79000,Україна,Львівська область,Львівський,Львівська ,Львів,вул. Гетьмана І. Мазепи,25,,0,,0,,Europe/Kyiv,
4641,633,Ребілітаційний центр Незламні (633),,49.871743,24.03947,UA46060250010015970,79000,Україна,Львівська область,Львівський,Львівська ,Львів,вул. Гетьмана І. Мазепи,22,,0,,0,,Europe/Kyiv,
4642,635,Плугова (635),,49.872393,24.043295,UA46060250010015970,79000,Україна,Львівська область,Львівський,Львівська ,Львів,вул. Гетьмана І. Мазепи,32,,0,,0,,Europe/Kyiv,
5027,212,Провесінь (212),,49.842186,24.10307,UA46060250010015970,79000,Україна,Львівська область,Львівський,Львівська ,Львів,вул. Тракт Глинянський ,165,навпроти №165,0,,0,,Europe/Kyiv,
4922,213,Богданівська (213),,49.839982,24.083936,UA46060250010015970,79000,Україна,Львівська область,Львівський,Львівська ,Львів,вул. Тракт Глинянський ,64,навпроти №64,0,,0,,Europe/Kyiv,
4970,208,Глинянський Тракт (208),,49.842016,24.100941,UA46060250010015970,79000,Україна,Львівська область,Львівський,Львівська ,Львів,вул. Тракт Глинянський ,161,,0,,0,,Europe/Kyiv,
4968,205,Богданівська (205),,49.840217,24.086154,UA46060250010015970,79000,Україна,Львівська область,Львівський,Львівська ,Львів,вул. Тракт Глинянський ,74,,0,,0,,Europe/Kyiv,
44943,206,Бігова (206),,49.841304,24.096598,UA46060250010015970,79000,Україна,Львівська область,Львівський,Львівська ,Львів,вул. Тракт Глинянський ,136,,0,,0,,Europe/Kyiv,
44941,207,Бігова (207),,49.841401,24.096727,UA46060250010015970,79000,Україна,Львівська область,Львівський,Львівська ,Львів,вул. Тракт Глинянський ,141,,0,,0,,Europe/Kyiv,
4971,209,Провесінь (209),,49.842293,24.103553,UA46060250010015970,79000,Україна,Львівська область,Львівський,Львівська ,Львів,вул. Тракт Глинянський ,165,,0,,0,,Europe/Kyiv,
5074,743,Річка Зубра (743),,49.796573,24.039197,UA46060250010015970,79000,Україна,Львівська область,Львівський,Львівська ,Львів,вул. Г. Хоткевича,62,,0,,0,,Europe/Kyiv,
z-461,461,Низинна (461),,49.839681,23.969555,UA46060250010015970,79000,Україна,Львівська область,Львівський,Львівська ,Львів,вул. Я. Гніздовського,1,,0,,0,,Europe/Kyiv,
2560945,460,Низинна (460),,49.83918,23.969561,UA46060250010015970,79000,Україна,Львівська область,Львівський,Львівська ,Львів,вул. Я. Гніздовського,4,,0,,0,,Europe/Kyiv,
4682,110,Привокзальний ринок (110),,49.836381,23.999189,UA46060250010015970,79000,Україна,Львівська область,Львівський,Львівська ,Львів,вул. Городоцька,155,навпроти №155,0,,0,,Europe/Kyiv,
4683,113,Скриня (113),,49.835592,23.994693,UA46060250010015970,79000,Україна,Львівська область,Львівський,Львівська ,Львів,вул. Городоцька,175,навпроти №175,0,,0,,Europe/Kyiv,
4731,498,Богданівка (498),,49.832495,23.978396,UA46060250010015970,79000,Україна,Львівська область,Львівський,Львівська ,Львів,вул. Городоцька,225,навпроти №225,0,,0,,Europe/Kyiv,
4945,95,Кульпарківська (95),,49.834412,23.989221,UA46060250010015970,79000,Україна,Львівська область,Львівський,Львівська ,Львів,вул. Городоцька,128,,0,,0,,Europe/Kyiv,
4730,96,Народна (96),,49.83372,23.985279,UA46060250010015970,79000,Україна,Львівська область,Львівський,Львівська ,Львів,вул. Городоцька,134,,0,,0,,Europe/Kyiv,
4703,494,Скриня (494),,49.835346,23.99509,UA46060250010015970,79000,Україна,Львівська область,Львівський,Львівська ,Львів,вул. Городоцька,175,,0,,0,,Europe/Kyiv,
4725,496,Кульпарківська (496),,49.834519,23.990198,UA46060250010015970,79000,Україна,Львівська область,Львівський,Львівська ,Львів,вул. Городоцька,189,,0,,0,,Europe/Kyiv,
4724,497,Народна (497),,49.833516,23.984562,UA46060250010015970,79000,Україна,Львівська область,Львівський,Львівська ,Львів,вул. Городоцька,207,,0,,0,,Europe/Kyiv,
z-744,744,Приміський вокзал (744),,49.836344,23.99969,UA46060250010015970,79000,Україна,Львівська область,Львівський,Львівська ,Львів,вул. Городоцька,153,,0,,0,,Europe/Kyiv,
z-745,745,Приміський вокзал (745),,49.836323,23.999913,UA46060250010015970,79000,Україна,Львівська область,Львівський,Львівська ,Львів,вул. Городоцька,153,,0,,0,,Europe/Kyiv,
44814,749,Привокзальний ринок (749),,49.836125,23.999162,UA46060250010015970,79000,Україна,Львівська область,Львівський,Львівська ,Львів,вул. Городоцька,155,,0,,0,,Europe/Kyiv,
5022,97,Мотозавод (97),,49.830474,23.966905,UA46060250010015970,79000,Україна,Львівська область,Львівський,Львівська ,Львів,вул. Городоцька,174,,0,,0,,Europe/Kyiv,
5023,98,Вівсяна (98),,49.829734,23.962866,UA46060250010015970,79000,Україна,Львівська область,Львівський,Львівська ,Львів,вул. Городоцька,210,,0,,0,,Europe/Kyiv,
5024,99,Вільхова (99),,49.828633,23.956949,UA46060250010015970,79000,Україна,Львівська область,Львівський,Львівська ,Львів,вул. Городоцька,222,,0,,0,,Europe/Kyiv,
4723,114,Богданівка (114),,49.832543,23.979179,UA46060250010015970,79000,Україна,Львівська область,Львівський,Львівська ,Львів,вул. Городоцька,223,,0,,0,,Europe/Kyiv,
4835,115,Каховська (115),,49.826768,23.946521,UA46060250010015970,79000,Україна,Львівська область,Львівський,Львівська ,Львів,вул. Городоцька,236,,0,,0,,Europe/Kyiv,
4722,100,Мотозавод (100),,49.830834,23.969448,UA46060250010015970,79000,Україна,Львівська область,Львівський,Львівська ,Львів,вул. Городоцька,249,,0,,0,,Europe/Kyiv,
4631,14,Наливайка (14),,49.84311,24.022197,UA46060250010015970,79000,Україна,Львівська область,Львівський,Львівська ,Львів,вул. Городоцька,27,,0,,0,,Europe/Kyiv,
5020,101,Вівсяна (101),,49.829965,23.964658,UA46060250010015970,79000,Україна,Львівська область,Львівський,Львівська ,Львів,вул. Городоцька,273,,0,,0,,Europe/Kyiv,
4836,102,Станційна (102),,49.823482,23.928912,UA46060250010015970,79000,Україна,Львівська область,Львівський,Львівська ,Львів,вул. Городоцька,282,,0,,0,,Europe/Kyiv,
44953,103,Азов-Галичина (103),,49.822646,23.924167,UA46060250010015970,79000,Україна,Львівська область,Львівський,Львівська ,Львів,вул. Городоцька,284,,0,,0,,Europe/Kyiv,
5019,104,Вільхова (104),,49.828834,23.958516,UA46060250010015970,79000,Україна,Львівська область,Львівський,Львівська ,Львів,вул. Городоцька,293,,0,,0,,Europe/Kyiv,
44954,105,Автостанція Західна (105),,49.821535,23.918175,UA46060250010015970,79000,Україна,Львівська область,Львівський,Львівська ,Львів,вул. Городоцька,300,,0,,0,,Europe/Kyiv,
4959,316,Епіцентр (316),,49.824204,23.910241,UA46060250010015970,79000,Україна,Львівська область,Львівський,Львівська ,Львів,вул. Городоцька,302,,0,,0,,Europe/Kyiv,
4841,116,Каховська (116),,49.8271,23.949187,UA46060250010015970,79000,Україна,Львівська область,Львівський,Львівська ,Львів,вул. Городоцька,319а,,0,,0,,Europe/Kyiv,
44952,106,Станційна (106),,49.823626,23.930706,UA46060250010015970,79000,Україна,Львівська область,Львівський,Львівська ,Львів,вул. Городоцька,355,,0,,0,,Europe/Kyiv,
44951,107,Азов-Галичина (107),,49.822622,23.925288,UA46060250010015970,79000,Україна,Львівська область,Львівський,Львівська ,Львів,вул. Городоцька,357,,0,,0,,Europe/Kyiv,
44950,108,Автостанція Західна (108),,49.821677,23.920106,UA46060250010015970,79000,Україна,Львівська область,Львівський,Львівська ,Львів,вул. Городоцька,359,,0,,0,,Europe/Kyiv,
44949,109,Городоцька-Кільцева (109),,49.821061,23.916695,UA46060250010015970,79000,Україна,Львівська область,Львівський,Львівська ,Львів,вул. Городоцька,367,,0,,0,,Europe/Kyiv,
4629,15,Цирк (15),,49.840197,24.012256,UA46060250010015970,79000,Україна,Львівська область,Львівський,Львівська ,Львів,вул. Городоцька,42,,0,,0,,Europe/Kyiv,
4578,17,Цирк (17),,49.84028,24.012181,UA46060250010015970,79000,Україна,Львівська область,Львівський,Львівська ,Львів,вул. Городоцька,44,,0,,0,,Europe/Kyiv,
4630,16,Церква святої Анни (16),,49.841939,24.016604,UA46060250010015970,79000,Україна,Львівська область,Львівський,Львівська ,Львів,вул. Городоцька,67,,0,,0,,Europe/Kyiv,
4878,13,Магнус (13),,49.843935,24.024104,UA46060250010015970,79000,Україна,Львівська область,Львівський,Львівська ,Львів,вул. Городоцька,8,,0,,0,,Europe/Kyiv,
4579,94,Площа Кропивницького (94),,49.837706,24.005567,UA46060250010015970,79000,Україна,Львівська область,Львівський,Львівська ,Львів,вул. Городоцька,94,,0,,0,,Europe/Kyiv,
4628,18,Площа Кропивницького (18),,49.837422,24.004907,UA46060250010015970,79000,Україна,Львівська область,Львівський,Львівська ,Львів,вул. Городоцька,98,,0,,0,,Europe/Kyiv,
4947,315,Епіцентр (315),,49.824453,23.910273,UA46060250010015970,79000,Україна,Львівська область,Львівський,Львівська ,Львів,вул. Городоцька,302,,0,,0,,Europe/Kyiv,
5161,19,Парк культури (19),,49.830253,24.023296,UA46060250010015970,79000,Україна,Львівська область,Львівський,Львівська ,Львів,вул. Д. Вітовського,,вхід до парку,0,,0,,Europe/Kyiv,
4984,20,Парк культури (20),,49.830242,24.023838,UA46060250010015970,79000,Україна,Львівська область,Львівський,Львівська ,Львів,вул. Д. Вітовського,41,навпроти №41,0,,0,,Europe/Kyiv,
2560957,831,Львівтеплоенерго (831),,49.830339,23.950281,UA46060250010015970,79000,Україна,Львівська область,Львівський,Львівська ,Львів,вул. Данила Апостола,9,,0,,0,,Europe/Kyiv,
2560958,832,Сервісний центр МВС (832),,49.83099,23.945421,UA46060250010015970,79000,Україна,Львівська область,Львівський,Львівська ,Львів,вул. Данила Апостола,9а,,0,,0,,Europe/Kyiv,
z-53,53,Магнус (53),,49.844431,24.023275,UA46060250010015970,79000,Україна,Львівська область,Львівський,Львівська ,Львів,вул. Д. Данилишина,9,,0,,0,,Europe/Kyiv,
5008,216,Вашингтона (216),,49.815984,24.062746,UA46060250010015970,79000,Україна,Львівська область,Львівський,Львівська ,Львів,вул. Дж. Вашингтона,,"навпроти вул. Зелена, 147",0,,0,,Europe/Kyiv,
4927,214,ТЦ Метро-2 (214),,49.814485,24.075991,UA46060250010015970,79000,Україна,Львівська область,Львівський,Львівська ,Львів,вул. Дж. Вашингтона,21,,0,,0,,Europe/Kyiv,
4928,215,Перинатальний центр (215),,49.816146,24.069323,UA46060250010015970,79000,Україна,Львівська область,Львівський,Львівська ,Львів,вул. Дж. Вашингтона,5а,,0,,0,,Europe/Kyiv,
4862,363,Перинатальний центр (363),,49.815714,24.070434,UA46060250010015970,79000,Україна,Львівська область,Львівський,Львівська ,Львів,вул. Дж. Вашингтона,6,,0,,0,,Europe/Kyiv,
5014,364,ТЦ Метро-2 (364),,49.814447,24.07532,UA46060250010015970,79000,Україна,Львівська область,Львівський,Львівська ,Львів,вул. Дж. Вашингтона,8,,0,,0,,Europe/Kyiv,
5122,368,Дунайська (368),,49.816631,24.050553,UA46060250010015970,79000,Україна,Львівська область,Львівський,Львівська ,Львів,вул. Дністерська,16а,,0,,0,,Europe/Kyiv,
5183,367,Лікарня Святого Луки (367),,49.814121,24.050928,UA46060250010015970,79000,Україна,Львівська область,Львівський,Львівська ,Львів,вул. Дністерська,22,,0,,0,,Europe/Kyiv,
z-858,858,Долішня (858),,49.8366273,24.0662644,UA46060250010015970,79000,Україна,Львівська область,Львівський,Львівська ,Львів,вул. Долішня,,"вул. Личаківська, 175",0,,0,,Europe/Kyiv,
z-859,859,Долішня (859),,49.8366912,24.0661061,UA46060250010015970,79000,Україна,Львівська область,Львівський,Львівська ,Львів,вул. Долішня,9а,,0,,0,,Europe/Kyiv,
5082,395,Пасіки Зубрицькі (395),,49.780769,24.090148,UA46060250010015970,79000,Україна,Львівська область,Львівський,Львівська ,Львів,вул. Дорожна,,,0,,0,,Europe/Kyiv,
5160,51,Дорошенка (51),,49.840181,24.027075,UA46060250010015970,79000,Україна,Львівська область,Львівський,Львівська ,Львів,вул. П. Дорошенка,3,,0,,0,,Europe/Kyiv,
44237,712,Енергетична (712),,49.815603,24.030082,UA46060250010015970,79000,Україна,Львівська область,Львівський,Львівська ,Львів,вул. Енергетична,12,,0,,0,,Europe/Kyiv,
4844,121,Патона (121),,49.823007,23.961446,UA46060250010015970,79000,Україна,Львівська область,Львівський,Львівська ,Львів,вул. Є. Патона,31,,0,,0,,Europe/Kyiv,
4831,122,Залізнична РА (122),,49.822709,23.965157,UA46060250010015970,79000,Україна,Львівська область,Львівський,Львівська ,Львів,вул. Є. Патона,2,,0,,0,,Europe/Kyiv,
4832,119,Патона (119),,49.823193,23.960516,UA46060250010015970,79000,Україна,Львівська область,Львівський,Львівська ,Львів,вул. Є. Патона,2,,0,,0,,Europe/Kyiv,
4845,120,Залізнична РА (120),,49.822664,23.965661,UA46060250010015970,79000,Україна,Львівська область,Львівський,Львівська ,Львів,вул. Є. Патона,7,,0,,0,,Europe/Kyiv,
42745,645,Городницька (645),,49.858448,24.02714,UA46060250010015970,79000,Україна,Львівська область,Львівський,Львівська ,Львів,вул. Замарстинівська,104,,0,,0,,Europe/Kyiv,
4854,45,Під Дубом (45),,49.850152,24.026821,UA46060250010015970,79000,Україна,Львівська область,Львівський,Львівська ,Львів,вул. Замарстинівська,11,,0,,0,,Europe/Kyiv,
42740,704,Торф’яна (704),,49.861045,24.026711,UA46060250010015970,79000,Україна,Львівська область,Львівський,Львівська ,Львів,вул. Замарстинівська,113,,0,,0,,Europe/Kyiv,
4998,704-01,Торф'яна (704-01),,49.861654,24.026689,UA46060250010015970,79000,Україна,Львівська область,Львівський,Львівська ,Львів,вул. Замарстинівська,122,,0,,0,,Europe/Kyiv,
5002,647,Торф’яна (647),,49.862133,24.026638,UA46060250010015970,79000,Україна,Львівська область,Львівський,Львівська ,Львів,вул. Замарстинівська,132,,0,,0,,Europe/Kyiv,
4570,648,Замарстинів (648),,49.870371,24.020558,UA46060250010015970,79000,Україна,Львівська область,Львівський,Львівська ,Львів,вул. Замарстинівська,173,,0,,0,,Europe/Kyiv,
4647,649,Замарстинів (649),,49.871272,24.018496,UA46060250010015970,79000,Україна,Львівська область,Львівський,Львівська ,Львів,вул. Замарстинівська,178,,0,,0,,Europe/Kyiv,
4668,654,Поліклініка МВС (654),,49.873823,24.013699,UA46060250010015970,79000,Україна,Львівська область,Львівський,Львівська ,Львів,вул. Замарстинівська,225а,,0,,0,,Europe/Kyiv,
42748,640,Палац культури Гната Хоткевича (640),,49.852271,24.02747,UA46060250010015970,79000,Україна,Львівська область,Львівський,Львівська ,Львів,вул. Замарстинівська,25,,0,,0,,Europe/Kyiv,
4667,651,Дитячий диспансер (651),,49.877467,24.004027,UA46060250010015970,79000,Україна,Львівська область,Львівський,Львівська ,Львів,вул. Замарстинівська,265,,0,,0,,Europe/Kyiv,
42751,23,Під Дубом (23),,49.850227,24.026856,UA46060250010015970,79000,Україна,Львівська область,Львівський,Львівська ,Львів,вул. Замарстинівська,32,,0,,0,,Europe/Kyiv,
42742,641,Гайдамацька (641),,49.853827,24.028116,UA46060250010015970,79000,Україна,Львівська область,Львівський,Львівська ,Львів,вул. Замарстинівська,39,,0,,0,,Europe/Kyiv,
42749,642,Палац культури Гната Хоткевича (642),,49.85229,24.027513,UA46060250010015970,79000,Україна,Львівська область,Львівський,Львівська ,Львів,вул. Замарстинівська,40,,0,,0,,Europe/Kyiv,
42741,244,Гайдамацька (244),,49.85441,24.028242,UA46060250010015970,79000,Україна,Львівська область,Львівський,Львівська ,Львів,вул. Замарстинівська,54,,0,,0,,Europe/Kyiv,
42801,644,Городницька (644),,49.858502,24.027041,UA46060250010015970,79000,Україна,Львівська область,Львівський,Львівська ,Львів,вул. Замарстинівська,85,,0,,0,,Europe/Kyiv,
4669,653,Замарстинів (653),,49.87133,24.018109,UA46060250010015970,79000,Україна,Львівська область,Львівський,Львівська ,Львів,вул. Замарстинівська,223а,,0,,0,,Europe/Kyiv,
4648,650,Поліклініка МВС (650),,49.873944,24.013517,UA46060250010015970,79000,Україна,Львівська область,Львівський,Львівська ,Львів,вул. Замарстинівська,226,,0,,0,,Europe/Kyiv,
4577,60,Захисників України (60),,49.84203,24.015512,UA46060250010015970,79000,Україна,Львівська область,Львівський,Львівська ,Львів,вул. Захисників України,,,0,,0,,Europe/Kyiv,
4858,25,Керченська (25),,49.82347,24.052248,UA46060250010015970,79000,Україна,Львівська область,Львівський,Львівська ,Львів,вул. Зелена,109,навпроти №109,0,,0,,Europe/Kyiv,
4815,394,Сихівська (394),,49.797178,24.071935,UA46060250010015970,79000,Україна,Львівська область,Львівський,Львівська ,Львів,вул. Зелена,309,навпроти №309,0,,0,,Europe/Kyiv,
4978,222,Керченська (222),,49.823896,24.051647,UA46060250010015970,79000,Україна,Львівська область,Львівський,Львівська ,Львів,вул. Зелена,107,,0,,0,,Europe/Kyiv,
4859,369,Липова Алея (369),,49.820659,24.055879,UA46060250010015970,79000,Україна,Львівська область,Львівський,Львівська ,Львів,вул. Зелена,130,,0,,0,,Europe/Kyiv,
4860,372,Дністерська (372),,49.817745,24.059388,UA46060250010015970,79000,Україна,Львівська область,Львівський,Львівська ,Львів,вул. Зелена,150,,0,,0,,Europe/Kyiv,
4856,219,Львівводоканал (219),,49.830685,24.043327,UA46060250010015970,79000,Україна,Львівська область,Львівський,Львівська ,Львів,вул. Зелена,54,,0,,0,,Europe/Kyiv,
4980,220,Львівводоканал (220),,49.829834,24.044466,UA46060250010015970,79000,Україна,Львівська область,Львівський,Львівська ,Львів,вул. Зелена,77,,0,,0,,Europe/Kyiv,
4981,218,Шота Руставелі (218),,49.834208,24.036008,UA46060250010015970,79000,Україна,Львівська область,Львівський,Львівська ,Львів,вул. Зелена,9,,0,,0,,Europe/Kyiv,
5083,396,Пасіки Зубрицькі (396),,49.781051,24.087144,UA46060250010015970,79000,Україна,Львівська область,Львівський,Львівська ,Львів,вул. Зелена,,,0,,0,,Europe/Kyiv,
4855,217,Шота Руставелі (217),,49.833829,24.037035,UA46060250010015970,79000,Україна,Львівська область,Львівський,Львівська ,Львів,вул. Зелена,12,,0,,0,,Europe/Kyiv,
4976,224,Дністерська (224),,49.817614,24.059892,UA46060250010015970,79000,Україна,Львівська область,Львівський,Львівська ,Львів,вул. Зелена,131,,0,,0,,Europe/Kyiv,
4933,370,Бузкова (370),,49.813637,24.060295,UA46060250010015970,79000,Україна,Львівська область,Львівський,Львівська ,Львів,вул. Зелена,147,,0,,0,,Europe/Kyiv,
4932,371,Фрезерний завод (371),,49.811404,24.061067,UA46060250010015970,79000,Україна,Львівська область,Львівський,Львівська ,Львів,вул. Зелена,149,,0,,0,,Europe/Kyiv,
4929,373,Бузкова (373),,49.813747,24.060043,UA46060250010015970,79000,Україна,Львівська область,Львівський,Львівська ,Львів,вул. Зелена,186,,0,,0,,Europe/Kyiv,
4930,374,Фрезерний завод (374),,49.811999,24.06082,UA46060250010015970,79000,Україна,Львівська область,Львівський,Львівська ,Львів,вул. Зелена,200,,0,,0,,Europe/Kyiv,
z-323,323,Автостанція №5 (323),,49.806881,24.060262,UA46060250010015970,79000,Україна,Львівська область,Львівський,Львівська ,Львів,вул. Зелена,214,,0,,0,,Europe/Kyiv,
42807,375,Автостанція №5 (375),,49.807544,24.061464,UA46060250010015970,79000,Україна,Львівська область,Львівський,Львівська ,Львів,вул. Зелена,214,,0,,0,,Europe/Kyiv,
4805,376,ДБК (376),,49.804937,24.062709,UA46060250010015970,79000,Україна,Львівська область,Львівський,Львівська ,Львів,вул. Зелена,238,,0,,0,,Europe/Kyiv,
44998,780,Вагилевича (780),,49.83285,24.040186,UA46060250010015970,79000,Україна,Львівська область,Львівський,Львівська ,Львів,вул. Зелена,24,,0,,0,,Europe/Kyiv,
4923,377,ДБК (377),,49.805938,24.062306,UA46060250010015970,79000,Україна,Львівська область,Львівський,Львівська ,Львів,вул. Зелена,251,,0,,0,,Europe/Kyiv,
4817,378,Зубрівська (378),,49.802268,24.065316,UA46060250010015970,79000,Україна,Львівська область,Львівський,Львівська ,Львів,вул. Зелена,261,,0,,0,,Europe/Kyiv,
4806,379,Зубрівська (379),,49.801506,24.065895,UA46060250010015970,79000,Україна,Львівська область,Львівський,Львівська ,Львів,вул. Зелена,266,,0,,0,,Europe/Kyiv,
4807,380,Сихівська (380),,49.797039,24.071817,UA46060250010015970,79000,Україна,Львівська область,Львівський,Львівська ,Львів,вул. Зелена,278,,0,,0,,Europe/Kyiv,
5079,381,Старий Сихів (381),,49.793054,24.074344,UA46060250010015970,79000,Україна,Львівська область,Львівський,Львівська ,Львів,вул. Зелена,296,,0,,0,,Europe/Kyiv,
42811,382,Сихівська (382),,49.798154,24.071753,UA46060250010015970,79000,Україна,Львівська область,Львівський,Львівська ,Львів,вул. Зелена,301,,0,,0,,Europe/Kyiv,
z-383,383,Колодязна (383),,49.78993,24.074339,UA46060250010015970,79000,Україна,Львівська область,Львівський,Львівська ,Львів,вул. Зелена,306,,0,,0,,Europe/Kyiv,
5177,386,Сихівська (386),,49.796861,24.072585,UA46060250010015970,79000,Україна,Львівська область,Львівський,Львівська ,Львів,вул. Зелена,313,,0,,0,,Europe/Kyiv,
5087,387,Вулецька (387),,49.795613,24.073545,UA46060250010015970,79000,Україна,Львівська область,Львівський,Львівська ,Львів,вул. Зелена,327,,0,,0,,Europe/Kyiv,
5086,388,Старий Сихів (388),,49.792461,24.074408,UA46060250010015970,79000,Україна,Львівська область,Львівський,Львівська ,Львів,вул. Зелена,367,,0,,0,,Europe/Kyiv,
42810,384,Станція Сихів (384),,49.787921,24.075208,UA46060250010015970,79000,Україна,Львівська область,Львівський,Львівська ,Львів,вул. Зелена,397,,0,,0,,Europe/Kyiv,
z-389,389,Станція Сихів (389),,49.787928,24.075178,UA46060250010015970,79000,Україна,Львівська область,Львівський,Львівська ,Львів,вул. Зелена,397,,0,,0,,Europe/Kyiv,
42808,391,Пасіки Зубрицькі (391),,49.780014,24.090097,UA46060250010015970,79000,Україна,Львівська область,Львівський,Львівська ,Львів,вул. Зелена,408,,0,,0,,Europe/Kyiv,
45008,779,Вагилевича (779),,49.832382,24.041372,UA46060250010015970,79000,Україна,Львівська область,Львівський,Львівська ,Львів,вул. Зелена,45,,0,,0,,Europe/Kyiv,
4979,221,Водогінна (221),,49.827135,24.045143,UA46060250010015970,79000,Україна,Львівська область,Львівський,Львівська ,Львів,вул. Зелена,87,,0,,0,,Europe/Kyiv,
4857,24,Водогінна (24),,49.826263,24.043692,UA46060250010015970,79000,Україна,Львівська область,Львівський,Львівська ,Львів,вул. Зелена,118,,0,,0,,Europe/Kyiv,
44229,393,Сихівський цвинтар (393),,49.772404,24.101695,UA46060250010015970,79000,Україна,Львівська область,Львівський,Львівська ,Львів,вул. Зелена,420,,0,,0,,Europe/Kyiv,
z-393-1,393-1,Сихівський цвинтар (393-1),,49.772162,24.1024,UA46060250010015970,79000,Україна,Львівська область,Львівський,Львівська ,Львів,вул. Зелена,420,,0,,0,,Europe/Kyiv,
5151,26,Зернова (26),,49.846361,24.024991,UA46060250010015970,79000,Україна,Львівська область,Львівський,Львівська ,Львів,вул. Зернова,11,,0,,0,,Europe/Kyiv,
4758,657,Величковського (657),,49.875209,23.932541,UA46060250010015970,79000,Україна,Львівська область,Львівський,Львівська ,Львів,вул. І. Величковського,40,навпроти №40,0,,0,,Europe/Kyiv,
4760,656,Величковського (656),,49.875299,23.93245,UA46060250010015970,79000,Україна,Львівська область,Львівський,Львівська ,Львів,вул. І. Величковського,42,,0,,0,,Europe/Kyiv,
5145,655-1,Рясне-2 (655-1),,49.875596,23.938308,UA46060250010015970,79000,Україна,Львівська область,Львівський,Львівська ,Львів,вул. І. Величковського,2,,0,,0,,Europe/Kyiv,
4734,133,Любінська-Виговського (133),,49.820016,23.969389,UA46060250010015970,79000,Україна,Львівська область,Львівський,Львівська ,Львів,вул. І. Виговського,,"вул. Чуваська, 12",0,,0,,Europe/Kyiv,
5033,132,Південний (132),,49.813547,23.976618,UA46060250010015970,79000,Україна,Львівська область,Львівський,Львівська ,Львів,вул. І. Виговського,,"вул. Щирецька, 36",0,,0,,Europe/Kyiv,
4735,134,Скнилівський парк (134),,49.817378,23.971503,UA46060250010015970,79000,Україна,Львівська область,Львівський,Львівська ,Львів,вул. І. Виговського,45а,навпроти №45А,0,,0,,Europe/Kyiv,
4736,135,Скнилівок (135),,49.812179,23.982065,UA46060250010015970,79000,Україна,Львівська область,Львівський,Львівська ,Львів,вул. І. Виговського,89,навпроти №89,0,,0,,Europe/Kyiv,
4733,127,Поліклініка №5 (127),,49.825854,23.967635,UA46060250010015970,79000,Україна,Львівська область,Львівський,Львівська ,Львів,вул. І. Виговського,32,,0,,0,,Europe/Kyiv,
4990,126,Залізнична РА (126),,49.823415,23.967528,UA46060250010015970,79000,Україна,Львівська область,Львівський,Львівська ,Львів,вул. І. Виговського,29,,0,,0,,Europe/Kyiv,
4732,124,Мотозавод (124),,49.830066,23.968123,UA46060250010015970,79000,Україна,Львівська область,Львівський,Львівська ,Львів,вул. І. Виговського,4,,0,,0,,Europe/Kyiv,
4716,131,Скнилівок (131),,49.812297,23.981942,UA46060250010015970,79000,Україна,Львівська область,Львівський,Львівська ,Львів,вул. І. Виговського,89,,0,,0,,Europe/Kyiv,
4809,400,Кос-Анатольського (400),,49.790865,24.067698,UA46060250010015970,79000,Україна,Львівська область,Львівський,Львівська ,Львів,вул. І. Кавалерідзе,16,,0,,0,,Europe/Kyiv,
4808,397,Кавалерідзе (397),,49.793535,24.064463,UA46060250010015970,79000,Україна,Львівська область,Львівський,Львівська ,Львів,вул. І. Кавалерідзе,2,,0,,0,,Europe/Kyiv,
42776,527,Київська (527),,49.832266,24.012486,UA46060250010015970,79000,Україна,Львівська область,Львівський,Львівська ,Львів,вул. І. Котляревського,,"вул. Генерала Т. Чупринки, 21",0,,0,,Europe/Kyiv,
42728,661,Миколайчука (661),,49.866507,24.044539,UA46060250010015970,79000,Україна,Львівська область,Львівський,Львівська ,Львів,вул. І. Миколайчука,,кінцева трамвая №6,0,,0,,Europe/Kyiv,
44220,661-01,Миколайчука (661-01),,49.865907,24.044177,UA46060250010015970,79000,Україна,Львівська область,Львівський,Львівська ,Львів,вул. І. Миколайчука,,кінцева трамвая №6,0,,0,,Europe/Kyiv,
4783,662,Щурата (662),,49.878796,24.036584,UA46060250010015970,79000,Україна,Львівська область,Львівський,Львівська ,Львів,вул. І. Миколайчука,2в,навпроти №28,0,,0,,Europe/Kyiv,
4784,658,Лікарня святого Пантелеймона (658),,49.874907,24.041259,UA46060250010015970,79000,Україна,Львівська область,Львівський,Львівська ,Львів,вул. І. Миколайчука,11,,0,,0,,Europe/Kyiv,
4781,659,Лікарня святого Пантелеймона (659),,49.875119,24.041358,UA46060250010015970,79000,Україна,Львівська область,Львівський,Львівська ,Львів,вул. І. Миколайчука,12,,0,,0,,Europe/Kyiv,
4884,680,Щурата (680),,49.879731,24.035157,UA46060250010015970,79000,Україна,Львівська область,Львівський,Львівська ,Львів,вул. І. Миколайчука,36а,,0,,0,,Europe/Kyiv,
42729,505,Площа Лема (505),,49.832422,24.017771,UA46060250010015970,79000,Україна,Львівська область,Львівський,Львівська ,Львів,вул. І. Нечуя-Левицького,,"вул. Академіка А. Сахарова, 2",0,,0,,Europe/Kyiv,
42772,27,Площа Лема (27),,49.832645,24.017127,UA46060250010015970,79000,Україна,Львівська область,Львівський,Львівська ,Львів,вул. І. Нечуя-Левицького,8,,0,,0,,Europe/Kyiv,
z-507,507,Пулюя (507),,49.801137,23.989074,UA46060250010015970,79000,Україна,Львівська область,Львівський,Львівська ,Львів,вул. І. Пулюя,34а,,0,,0,,Europe/Kyiv,
z-506,506,Коледж харчових технологій (506),,49.801196,23.991676,UA46060250010015970,79000,Україна,Львівська область,Львівський,Львівська ,Львів,вул. І. Пулюя,29,,0,,0,,Europe/Kyiv,
42805,509,Боднарівка (509),,49.805318,24.018216,UA46060250010015970,79000,Україна,Львівська область,Львівський,Львівська ,Львів,вул. І. Рубчака,,"вул. Стрийська, 144",0,,0,,Europe/Kyiv,
5149,298,Рубчака (298),,49.806159,24.011567,UA46060250010015970,79000,Україна,Львівська область,Львівський,Львівська ,Львів,вул. І. Рубчака,18,,0,,0,,Europe/Kyiv,
4695,508,Боднарівка (508),,49.805491,24.01776,UA46060250010015970,79000,Україна,Львівська область,Львівський,Львівська ,Львів,вул. І. Рубчака,2,,0,,0,,Europe/Kyiv,
42804,299,Рубчака (299),,49.806038,24.011827,UA46060250010015970,79000,Україна,Львівська область,Львівський,Львівська ,Львів,вул. І. Рубчака,7,,0,,0,,Europe/Kyiv,
4982,36,Саксаганського (36),,49.834104,24.034224,UA46060250010015970,79000,Україна,Львівська область,Львівський,Львівська ,Львів,вул. І. Франка,,"вул. П. Саксаганського, 13",0,,0,,Europe/Kyiv,
5032,38,Карманського (38),,49.820445,24.027356,UA46060250010015970,79000,Україна,Львівська область,Львівський,Львівська ,Львів,вул. І. Франка,145,навпроти №145,0,,0,,Europe/Kyiv,
5143,713,Музей Франка (713),,49.822131,24.032507,UA46060250010015970,79000,Україна,Львівська область,Львівський,Львівська ,Львів,вул. І. Франка,125,,0,,0,,Europe/Kyiv,
5030,401,Карманського (401),,49.820379,24.027484,UA46060250010015970,79000,Україна,Львівська область,Львівський,Львівська ,Львів,вул. І. Франка,145,,0,,0,,Europe/Kyiv,
5031,33,Музей Франка (33),,49.822238,24.032257,UA46060250010015970,79000,Україна,Львівська область,Львівський,Львівська ,Львів,вул. І. Франка,150,,0,,0,,Europe/Kyiv,
5029,402,Католицький університет (402),,49.817763,24.025356,UA46060250010015970,79000,Україна,Львівська область,Львівський,Львівська ,Львів,вул. І. Франка,159,,0,,0,,Europe/Kyiv,
4983,31,Площа Франка (31),,49.830573,24.032114,UA46060250010015970,79000,Україна,Львівська область,Львівський,Львівська ,Львів,вул. І. Франка,66,,0,,0,,Europe/Kyiv,
5051,29,Шухевича (29),,49.837368,24.035021,UA46060250010015970,79000,Україна,Львівська область,Львівський,Львівська ,Львів,вул. І. Франка,7,,0,,0,,Europe/Kyiv,
4865,311,Площа Франка (311),,49.829702,24.031574,UA46060250010015970,79000,Україна,Львівська область,Львівський,Львівська ,Львів,вул. І. Франка,77,,0,,0,,Europe/Kyiv,
4899,30,Шухевича (30),,49.836654,24.034894,UA46060250010015970,79000,Україна,Львівська область,Львівський,Львівська ,Львів,вул. І. Франка,8,,0,,0,,Europe/Kyiv,
4824,404,Податкова (404),,49.814627,24.023098,UA46060250010015970,79000,Україна,Львівська область,Львівський,Львівська ,Львів,вул. І. Чмоли,2,,0,,0,,Europe/Kyiv,
z-425,425,Південний (425),,49.814383,23.975239,UA46060250010015970,79000,Україна,Львівська область,Львівський,Львівська ,Львів,вул. І. Виговського,,,0,,0,,Europe/Kyiv,
45026,706,Стрийський парк (706),,49.825963,24.0334,UA46060250010015970,79000,Україна,Львівська область,Львівський,Львівська ,Львів,вул. І Франка,112,,0,,0,,Europe/Kyiv,
5170,1025,"Винники, Госпіталь (1025)",,49.826378,24.135775,UA46060250010015970,79000,Україна,Львівська область,Львівський,Львівська ,Львів,вул. В. Івасюка,31,навпроти №31,0,,0,,Europe/Kyiv,
44163,1024,"Винники, Госпіталь (1024)",,49.826646,24.13543,UA46060250010015970,79000,Україна,Львівська область,Львівський,Львівська ,Львів,вул. В. Івасюка,31,,0,,0,,Europe/Kyiv,
42769,28,Стрийський парк (28),,49.826955,24.03413,UA46060250010015970,79000,Україна,Львівська область,Львівський,Львівська ,Львів,вул. І. Свєнціцького,5,,0,,0,,Europe/Kyiv,
z-407,407,Коломийська - Трильовського (407),,49.787544,24.066222,UA46060250010015970,79000,Україна,Львівська область,Львівський,Львівська ,Львів,вул. К. Трильовського,1,навпроти №1,0,,0,,Europe/Kyiv,
4873,805,Калнишевського (805),,49.848036,23.969743,UA46060250010015970,79000,Україна,Львівська область,Львівський,Львівська ,Львів,вул. П. Калнишевського,15,,0,,0,,Europe/Kyiv,
42777,511,Київська (511),,49.832429,24.011806,UA46060250010015970,79000,Україна,Львівська область,Львівський,Львівська ,Львів,вул. Київська,1,,0,,0,,Europe/Kyiv,
42782,293,Ісаєвича (293),,49.822662,24.006605,UA46060250010015970,79000,Україна,Львівська область,Львівський,Львівська ,Львів,вул. Княгині Ольги,,"вул. Д. Котка, 4",0,,0,,Europe/Kyiv,
5078,522,Аквапарк (522),,49.807253,23.99869,UA46060250010015970,79000,Україна,Львівська область,Львівський,Львівська ,Львів,вул. Княгині Ольги,108,,0,,0,,Europe/Kyiv,
5088,520,Аквапарк (520),,49.806634,23.999097,UA46060250010015970,79000,Україна,Львівська область,Львівський,Львівська ,Львів,вул. Княгині Ольги,71,,0,,0,,Europe/Kyiv,
45004,523,Аркаса (523),,49.817325,24.002839,UA46060250010015970,79000,Україна,Львівська область,Львівський,Львівська ,Львів,вул. Княгині Ольги,100л,,0,,0,,Europe/Kyiv,
4957,525,Аркаса (525),,49.817358,24.003038,UA46060250010015970,79000,Україна,Львівська область,Львівський,Львівська ,Львів,вул. Княгині Ольги,100л,,0,,0,,Europe/Kyiv,
4958,521,"Бойчука, Кіноцентр (521)",,49.81202,23.999918,UA46060250010015970,79000,Україна,Львівська область,Львівський,Львівська ,Львів,вул. Княгині Ольги,104,,0,,0,,Europe/Kyiv,
44999,514,Аркаса (514),,49.817861,24.003609,UA46060250010015970,79000,Україна,Львівська область,Львівський,Львівська ,Львів,вул. Княгині Ольги,11,,0,,0,,Europe/Kyiv,
4950,513,Ісаєвича (513),,49.82378,24.007662,UA46060250010015970,79000,Україна,Львівська область,Львівський,Львівська ,Львів,вул. Княгині Ольги,3,,0,,0,,Europe/Kyiv,
4956,515,Ісаєвича (515),,49.82301,24.006672,UA46060250010015970,79000,Україна,Львівська область,Львівський,Львівська ,Львів,вул. Княгині Ольги,32,,0,,0,,Europe/Kyiv,
42785,516,"Бойчука, Кіноцентр (516)",,49.813339,24.000768,UA46060250010015970,79000,Україна,Львівська область,Львівський,Львівська ,Львів,вул. Княгині Ольги,42,,0,,0,,Europe/Kyiv,
42784,517,"Бойчука, Кіноцентр (517)",,49.813021,24.000468,UA46060250010015970,79000,Україна,Львівська область,Львівський,Львівська ,Львів,вул. Княгині Ольги,49,,0,,0,,Europe/Kyiv,
4948,518,"Бойчука, Кіноцентр (518)",,49.812321,24.000412,UA46060250010015970,79000,Україна,Львівська область,Львівський,Львівська ,Львів,вул. Княгині Ольги,59,,0,,0,,Europe/Kyiv,
42783,294,Ісаєвича (294),,49.822515,24.00664,UA46060250010015970,79000,Україна,Львівська область,Львівський,Львівська ,Львів,вул. Княгині Ольги,5а,,0,,0,,Europe/Kyiv,
42787,519,Аквапарк (519),,49.807142,23.999028,UA46060250010015970,79000,Україна,Львівська область,Львівський,Львівська ,Львів,вул. Княгині Ольги,69,,0,,0,,Europe/Kyiv,
42786,519-01,Аквапарк-висадка (519-01),,49.807125,23.998851,UA46060250010015970,79000,Україна,Львівська область,Львівський,Львівська ,Львів,вул. Княгині Ольги,69,,0,,0,,Europe/Kyiv,
4949,524,Аркаса (524),,49.817564,24.003247,UA46060250010015970,79000,Україна,Львівська область,Львівський,Львівська ,Львів,вул. Княгині Ольги,9,,0,,0,,Europe/Kyiv,
4951,512,Горбачевського (512),,49.825757,24.009494,UA46060250010015970,79000,Україна,Львівська область,Львівський,Львівська ,Львів,вул. Княгині Ольги,1,,0,,0,,Europe/Kyiv,
44975,39,Князя Романа (39),,49.837659,24.032995,UA46060250010015970,79000,Україна,Львівська область,Львівський,Львівська ,Львів,вул. Князя Романа,26,,0,,0,,Europe/Kyiv,
4939,230,Ковельська (230),,49.859061,24.05907,UA46060250010015970,79000,Україна,Львівська область,Львівський,Львівська ,Львів,вул. Ковельська,,"вул. Пластова, 2",0,,0,,Europe/Kyiv,
4943,231,Ковельська (231),,49.859971,24.060305,UA46060250010015970,79000,Україна,Львівська область,Львівський,Львівська ,Львів,вул. Ковельська,63,навпроти №63,0,,0,,Europe/Kyiv,
4940,228,Милятинська (228),,49.857515,24.057266,UA46060250010015970,79000,Україна,Львівська область,Львівський,Львівська ,Львів,вул. Ковельська,41,,0,,0,,Europe/Kyiv,
4917,229,Милятинська (229),,49.857506,24.057382,UA46060250010015970,79000,Україна,Львівська область,Львівський,Львівська ,Львів,вул. Ковельська,50,,0,,0,,Europe/Kyiv,
44942,766,Ковельська (766),,49.860966,24.060812,UA46060250010015970,79000,Україна,Львівська область,Львівський,Львівська ,Львів,вул. Ковельська,67,,0,,0,,Europe/Kyiv,
2560924,301,Католицький університет (301),,49.817607,24.025214,UA46060250010015970,79000,Україна,Львівська область,Львівський,Львівська ,Львів,вул. Козельницька,2,,0,,0,,Europe/Kyiv,
4823,408,Католицький університет (408),,49.816292,24.025732,UA46060250010015970,79000,Україна,Львівська область,Львівський,Львівська ,Львів,вул. Козельницька,4,,0,,0,,Europe/Kyiv,
5174,411,Коломийська - Трильовського (411),,49.787758,24.066636,UA46060250010015970,79000,Україна,Львівська область,Львівський,Львівська ,Львів,вул. Коломийська,9,навпроти №9,0,,0,,Europe/Kyiv,
4811,409,Коломийська (409),,49.788039,24.061051,UA46060250010015970,79000,Україна,Львівська область,Львівський,Львівська ,Львів,вул. Коломийська,7,,0,,0,,Europe/Kyiv,
4810,410,Коломийська - Трильовського (410),,49.787672,24.065938,UA46060250010015970,79000,Україна,Львівська область,Львівський,Львівська ,Львів,вул. Коломийська,9,,0,,0,,Europe/Kyiv,
5175,405,Трильовського (405),,49.783599,24.067279,UA46060250010015970,79000,Україна,Львівська область,Львівський,Львівська ,Львів,вул. Коломийська,,,0,,0,,Europe/Kyiv,
42792,677,Коновальця (677),,49.824214,23.992896,UA46060250010015970,79000,Україна,Львівська область,Львівський,Львівська ,Львів,вул. Є. Коновальця,109,навпроти №109,0,,0,,Europe/Kyiv,
42790,503,Гординських (503),,49.826983,23.997349,UA46060250010015970,79000,Україна,Львівська область,Львівський,Львівська ,Львів,вул. Є. Коновальця,100,,0,,0,,Europe/Kyiv,
42791,504,"Коновальця, музей Труша (504)",,49.824384,23.993207,UA46060250010015970,79000,Україна,Львівська область,Львівський,Львівська ,Львів,вул. Є. Коновальця,111,,0,,0,,Europe/Kyiv,
42779,499,Мельника (499),,49.830664,24.003244,UA46060250010015970,79000,Україна,Львівська область,Львівський,Львівська ,Львів,вул. Є. Коновальця,51,,0,,0,,Europe/Kyiv,
42789,500,Залізняка (500),,49.829163,24.00076,UA46060250010015970,79000,Україна,Львівська область,Львівський,Львівська ,Львів,вул. Є. Коновальця,74,,0,,0,,Europe/Kyiv,
42788,501,Залізняка (501),,49.828415,23.999704,UA46060250010015970,79000,Україна,Львівська область,Львівський,Львівська ,Львів,вул. Є. Коновальця,85,,0,,0,,Europe/Kyiv,
42800,502,Гординських (502),,49.826692,23.996925,UA46060250010015970,79000,Україна,Львівська область,Львівський,Львівська ,Львів,вул. Є. Коновальця,97,,0,,0,,Europe/Kyiv,
42771,43,Головна пошта (43),,49.836443,24.022341,UA46060250010015970,79000,Україна,Львівська область,Львівський,Львівська ,Львів,вул. М. Коперника,40,,0,,0,,Europe/Kyiv,
4916,273,Корейська (273),,49.855541,24.053444,UA46060250010015970,79000,Україна,Львівська область,Львівський,Львівська ,Львів,вул. Корейська,7,,0,,0,,Europe/Kyiv,
45067,764,Духновича (764),,49.847126,24.081444,UA46060250010015970,79000,Україна,Львівська область,Львівський,Львівська ,Львів,вул. Дорога Кривчицька ,103,,0,,0,,Europe/Kyiv,
5098,232,Шевченківський гай (232),,49.842276,24.06921,UA46060250010015970,79000,Україна,Львівська область,Львівський,Львівська ,Львів,вул. Дорога Кривчицька ,16,,0,,0,,Europe/Kyiv,
5090,235,Шевченківський гай (235),,49.842328,24.069033,UA46060250010015970,79000,Україна,Львівська область,Львівський,Львівська ,Львів,вул. Дорога Кривчицька ,19а,,0,,0,,Europe/Kyiv,
5099,233,Кривчиці (233),,49.844116,24.07369,UA46060250010015970,79000,Україна,Львівська область,Львівський,Львівська ,Львів,вул. Дорога Кривчицька ,46,,0,,0,,Europe/Kyiv,
5089,234,Кривчиці (234),,49.844255,24.073829,UA46060250010015970,79000,Україна,Львівська область,Львівський,Львівська ,Львів,вул. Дорога Кривчицька ,53,,0,,0,,Europe/Kyiv,
45068,765,Духновича (765),,49.846994,24.081098,UA46060250010015970,79000,Україна,Львівська область,Львівський,Львівська ,Львів,вул. Дорога Кривчицька ,76,,0,,0,,Europe/Kyiv,
5171,768,Три Корони (768),,49.814043,23.981416,UA46060250010015970,79000,Україна,Львівська область,Львівський,Львівська ,Львів,вул. Кульпарківська,172,,0,,0,,Europe/Kyiv,
z-767,767,Три Корони (767),,49.814118,23.981416,UA46060250010015970,79000,Україна,Львівська область,Львівський,Львівська ,Львів,вул. Кульпарківська,174,,0,,0,,Europe/Kyiv,
4585,137,Кульпарків (137),,49.819294,23.98787,UA46060250010015970,79000,Україна,Львівська область,Львівський,Львівська ,Львів,вул. Кульпарківська,118,,0,,0,,Europe/Kyiv,
4620,533,Щирецька (533),,49.809356,23.982562,UA46060250010015970,79000,Україна,Львівська область,Львівський,Львівська ,Львів,вул. Кульпарківська,123,,0,,0,,Europe/Kyiv,
4622,532,Кульпарків (532),,49.818638,23.987741,UA46060250010015970,79000,Україна,Львівська область,Львівський,Львівська ,Львів,вул. Кульпарківська,126,,0,,0,,Europe/Kyiv,
2563170,578,Вітряна-Кульпарківська (578),,49.815374,23.984705,UA46060250010015970,79000,Україна,Львівська область,Львівський,Львівська ,Львів,вул. Кульпарківська,158,,0,,0,,Europe/Kyiv,
4586,136,Скнилівок (136),,49.813453,23.98467,UA46060250010015970,79000,Україна,Львівська область,Львівський,Львівська ,Львів,вул. Кульпарківська,158а,,0,,0,,Europe/Kyiv,
4587,138,Щирецька (138),,49.809472,23.982446,UA46060250010015970,79000,Україна,Львівська область,Львівський,Львівська ,Львів,вул. Кульпарківська,214,,0,,0,,Europe/Kyiv,
4621,534,Скнилівок (534),,49.8139,23.985112,UA46060250010015970,79000,Україна,Львівська область,Львівський,Львівська ,Львів,вул. Кульпарківська,2а,,0,,0,,Europe/Kyiv,
4684,529,Кульпарківська (529),,49.834182,23.990906,UA46060250010015970,79000,Україна,Львівська область,Львівський,Львівська ,Львів,вул. Кульпарківська,3,,0,,0,,Europe/Kyiv,
4701,530,Кардіологічний центр (530),,49.831242,23.990782,UA46060250010015970,79000,Україна,Львівська область,Львівський,Львівська ,Львів,вул. Кульпарківська,35,,0,,0,,Europe/Kyiv,
45007,392,Кардіологічний центр (392),,49.829796,23.99031,UA46060250010015970,79000,Україна,Львівська область,Львівський,Львівська ,Львів,вул. Кульпарківська,42,,0,,0,,Europe/Kyiv,
4584,531,Антоновича (531),,49.826534,23.989846,UA46060250010015970,79000,Україна,Львівська область,Львівський,Львівська ,Львів,вул. Кульпарківська,56,,0,,0,,Europe/Kyiv,
z-828,828,Антоновича (828),,49.825764,23.989863,UA46060250010015970,79000,Україна,Львівська область,Львівський,Львівська ,Львів,вул. Кульпарківська,73,,0,,0,,Europe/Kyiv,
z-829,829,Садова (829),,49.821703,23.988774,UA46060250010015970,79000,Україна,Львівська область,Львівський,Львівська ,Львів,вул. Кульпарківська,93,,0,,0,,Europe/Kyiv,
z-830,830,Садова (830),,49.821694,23.98868,UA46060250010015970,79000,Україна,Львівська область,Львівський,Львівська ,Львів,вул. Кульпарківська,96,,0,,0,,Europe/Kyiv,
5185,772,Скнилівський парк (772),,49.817448,23.972667,UA46060250010015970,79000,Україна,Львівська область,Львівський,Львівська ,Львів,вул. О. Кульчицької,1,,0,,0,,Europe/Kyiv,
44085,774,Насінна (774),,49.818311,23.9765,UA46060250010015970,79000,Україна,Львівська область,Львівський,Львівська ,Львів,вул. О. Кульчицької,16а,,0,,0,,Europe/Kyiv,
44086,773,Насінна (773),,49.818581,23.976988,UA46060250010015970,79000,Україна,Львівська область,Львівський,Львівська ,Львів,вул. О. Кульчицької,3,,0,,0,,Europe/Kyiv,
2560947,820,Станція п'ятий парк (820),,49.834543,23.96006,UA46060250010015970,79000,Україна,Львівська область,Львівський,Львівська ,Львів,вул. Генерала В. Курмановича,1а,навпроти №1а,0,,0,,Europe/Kyiv,
z-827,827,Курмановича (827),,49.827162,23.942028,UA46060250010015970,79000,Україна,Львівська область,Львівський,Львівська ,Львів,вул. Генерала В. Курмановича,19,навпроти №19,0,,0,,Europe/Kyiv,
2560954,825,Львівтеплоенерго (825),,49.829318,23.94879,UA46060250010015970,79000,Україна,Львівська область,Львівський,Львівська ,Львів,вул. Генерала В. Курмановича,4,навпроти №4,0,,0,,Europe/Kyiv,
2560952,823,Колекторна (823),,49.831742,23.955852,UA46060250010015970,79000,Україна,Львівська область,Львівський,Львівська ,Львів,вул. Генерала В. Курмановича,9,навпроти №9,0,,0,,Europe/Kyiv,
z-826,826,Курмановича (826),,49.827135,23.941832,UA46060250010015970,79000,Україна,Львівська область,Львівський,Львівська ,Львів,вул. Генерала В. Курмановича,19,,0,,0,,Europe/Kyiv,
2560948,821,Станція П'ятий парк (821),,49.83481,23.960683,UA46060250010015970,79000,Україна,Львівська область,Львівський,Львівська ,Львів,вул. Генерала В. Курмановича,1а,,0,,0,,Europe/Kyiv,
z-824,824,Львівтеплоенерго (824),,49.829128,23.948066,UA46060250010015970,79000,Україна,Львівська область,Львівський,Львівська ,Львів,вул. Генерала В. Курмановича,4,,0,,0,,Europe/Kyiv,
2560951,822,Колекторна (822),,49.831626,23.955519,UA46060250010015970,79000,Україна,Львівська область,Львівський,Львівська ,Львів,вул. Генерала В. Курмановича,9,,0,,0,,Europe/Kyiv,
4894,141,Естонська (141),,49.846887,23.990343,UA46060250010015970,79000,Україна,Львівська область,Львівський,Львівська ,Львів,вул. Левандівська,3,навпроти №3,0,,0,,Europe/Kyiv,
4746,139,Левандівська (139),,49.848437,23.994302,UA46060250010015970,79000,Україна,Львівська область,Львівський,Львівська ,Львів,вул. Левандівська,1,,0,,0,,Europe/Kyiv,
4771,142,Левандівська (142),,49.848406,23.993974,UA46060250010015970,79000,Україна,Львівська область,Львівський,Львівська ,Львів,вул. Левандівська,10,,0,,0,,Europe/Kyiv,
4743,145,Широка (145),,49.84303,23.980402,UA46060250010015970,79000,Україна,Львівська область,Львівський,Львівська ,Львів,вул. Левандівська,25,,0,,0,,Europe/Kyiv,
4745,140,Естонська (140),,49.846839,23.990364,UA46060250010015970,79000,Україна,Львівська область,Львівський,Львівська ,Львів,вул. Левандівська,3,,0,,0,,Europe/Kyiv,
44811,239,Левицького (239),,49.830341,24.049463,UA46060250010015970,79000,Україна,Львівська область,Львівський,Львівська ,Львів,вул. К. Левицького,122,,0,,0,,Europe/Kyiv,
44812,238,Левицького (238),,49.830464,24.049442,UA46060250010015970,79000,Україна,Львівська область,Львівський,Львівська ,Львів,вул. К. Левицького,99,,0,,0,,Europe/Kyiv,
4782,619,Леннона (619),,49.879676,24.038561,UA46060250010015970,79000,Україна,Львівська область,Львівський,Львівська ,Львів,вул. Дж. Леннона,12,,0,,0,,Europe/Kyiv,
2560966,806,Біля лева (806),,49.826418,24.101976,UA46060250010015970,79000,Україна,Львівська область,Львівський,Львівська ,Львів,вул. Личаківська,,,0,,0,,Europe/Kyiv,
2560967,807,Біля лева (807),,49.826834,24.101751,UA46060250010015970,79000,Україна,Львівська область,Львівський,Львівська ,Львів,вул. Личаківська,,,0,,0,,Europe/Kyiv,
2560968,808,Млинівці (808),,49.823835,24.106117,UA46060250010015970,79000,Україна,Львівська область,Львівський,Львівська ,Львів,вул. Личаківська,,До Винник,0,,0,,Europe/Kyiv,
2560969,809,Млинівці (809),,49.823806,24.106289,UA46060250010015970,79000,Україна,Львівська область,Львівський,Львівська ,Львів,вул. Личаківська,,До Львова,0,,0,,Europe/Kyiv,
5066,261,Бахматюка (261),,49.83481,24.084139,UA46060250010015970,79000,Україна,Львівська область,Львівський,Львівська ,Львів,вул. Личаківська,261,навпроти №261,0,,0,,Europe/Kyiv,
5067,262,Дріжджова (262),,49.833716,24.089118,UA46060250010015970,79000,Україна,Львівська область,Львівський,Львівська ,Львів,вул. Личаківська,283,навпроти №283,0,,0,,Europe/Kyiv,
5068,1018,Винниківське озеро (1018),,49.820682,24.112582,UA46060250010015970,79000,Україна,Львівська область,Львівський,Львівська ,Львів,вул. Личаківська,,перехрестя з вул. Б. Хмельницького,0,,0,,Europe/Kyiv,
5061,1019,Винниківське озеро (1019),,49.820656,24.112464,UA46060250010015970,79000,Україна,Львівська область,Львівський,Львівська ,Львів,вул. Личаківська,,перехрестя з вул. Б. Хмельницького,0,,0,,Europe/Kyiv,
5065,254,Ялівець (254),,49.835683,24.07554,UA46060250010015970,79000,Україна,Львівська область,Львівський,Львівська ,Львів,вул. Личаківська,162,,0,,0,,Europe/Kyiv,
5064,257,Ялівець (257),,49.835779,24.075004,UA46060250010015970,79000,Україна,Львівська область,Львівський,Львівська ,Львів,вул. Личаківська,223,,0,,0,,Europe/Kyiv,
5063,258,Бахматюка (258),,49.834997,24.083646,UA46060250010015970,79000,Україна,Львівська область,Львівський,Львівська ,Львів,вул. Личаківська,259,,0,,0,,Europe/Kyiv,
4875,242,Військовий госпіталь (242),,49.840259,24.04315,UA46060250010015970,79000,Україна,Львівська область,Львівський,Львівська ,Львів,вул. Личаківська,35,,0,,0,,Europe/Kyiv,
4912,243,Медичний університет (243),,49.839806,24.049845,UA46060250010015970,79000,Україна,Львівська область,Львівський,Львівська ,Львів,вул. Личаківська,52,,0,,0,,Europe/Kyiv,
4849,42,Площа Митна (42),,49.839833,24.038005,UA46060250010015970,79000,Україна,Львівська область,Львівський,Львівська ,Львів,вул. Личаківська,7,,0,,0,,Europe/Kyiv,
42762,247,Мечникова (247),,49.838716,24.05423,UA46060250010015970,79000,Україна,Львівська область,Львівський,Львівська ,Львів,вул. Личаківська,107,,0,,0,,Europe/Kyiv,
42761,248,Богдана Котика (248),,49.837252,24.060026,UA46060250010015970,79000,Україна,Львівська область,Львівський,Львівська ,Львів,вул. Личаківська,112,,0,,0,,Europe/Kyiv,
4914,249,Богдана Котика (249),,49.837304,24.060171,UA46060250010015970,79000,Україна,Львівська область,Львівський,Львівська ,Львів,вул. Личаківська,112,,0,,0,,Europe/Kyiv,
42763,250,Мечникова (250),,49.838448,24.055493,UA46060250010015970,79000,Україна,Львівська область,Львівський,Львівська ,Львів,вул. Личаківська,113,,0,,0,,Europe/Kyiv,
42760,251,Богдана Котика (251),,49.837419,24.059672,UA46060250010015970,79000,Україна,Львівська область,Львівський,Львівська ,Львів,вул. Личаківська,141,,0,,0,,Europe/Kyiv,
4872,252,Котика (252),,49.837263,24.060879,UA46060250010015970,79000,Україна,Львівська область,Львівський,Львівська ,Львів,вул. Личаківська,149,,0,,0,,Europe/Kyiv,
4934,253,Автостанція №6 (253),,49.835865,24.071536,UA46060250010015970,79000,Україна,Львівська область,Львівський,Львівська ,Львів,вул. Личаківська,157,,0,,0,,Europe/Kyiv,
5100,255,Пасічна (255),,49.8361,24.067231,UA46060250010015970,79000,Україна,Львівська область,Львівський,Львівська ,Львів,вул. Личаківська,175,,0,,0,,Europe/Kyiv,
5248,256,Автостанція №6 (256),,49.835945,24.07101,UA46060250010015970,79000,Україна,Львівська область,Львівський,Львівська ,Львів,вул. Личаківська,195,,0,,0,,Europe/Kyiv,
4910,240,Площа Митна (240),,49.839773,24.037182,UA46060250010015970,79000,Україна,Львівська область,Львівський,Львівська ,Львів,вул. Личаківська,2,,0,,0,,Europe/Kyiv,
4911,241,Військовий госпіталь (241),,49.840221,24.043327,UA46060250010015970,79000,Україна,Львівська область,Львівський,Львівська ,Львів,вул. Личаківська,28,,0,,0,,Europe/Kyiv,
5062,259,Дріжджова (259),,49.834118,24.087959,UA46060250010015970,79000,Україна,Львівська область,Львівський,Львівська ,Львів,вул. Личаківська,281,,0,,0,,Europe/Kyiv,
4874,245,Медичний університет (245),,49.840041,24.049249,UA46060250010015970,79000,Україна,Львівська область,Львівський,Львівська ,Львів,вул. Личаківська,67,,0,,0,,Europe/Kyiv,
44808,246,Мечникова (246),,49.838735,24.054002,UA46060250010015970,79000,Україна,Львівська область,Львівський,Львівська ,Львів,вул. Личаківська,74,,0,,0,,Europe/Kyiv,
z-416,416,Західенерго (416),,49.81063,24.02666,UA46060250010015970,79000,Україна,Львівська область,Львівський,Львівська ,Львів,вул. Луганська,,,0,,0,,Europe/Kyiv,
z-414,414,Станція Персенківка (414),,49.809777,24.031026,UA46060250010015970,79000,Україна,Львівська область,Львівський,Львівська ,Львів,вул. Луганська,,,0,,0,,Europe/Kyiv,
z-415,415,Станція Персенківка (415),,49.810075,24.029943,UA46060250010015970,79000,Україна,Львівська область,Львівський,Львівська ,Львів,вул. Луганська,,,0,,0,,Europe/Kyiv,
z-0296,0296,Сихівський міст (0296),,49.808538,24.043654,UA46060250010015970,79000,Україна,Львівська область,Львівський,Львівська ,Львів,вул. Луганська,18,,0,,0,,Europe/Kyiv,
z-0297,0297,Сихівський міст (0297),,49.808188,24.041256,UA46060250010015970,79000,Україна,Львівська область,Львівський,Львівська ,Львів,вул. Луганська,18,,0,,0,,Europe/Kyiv,
4650,1066,"Брюховичі, Цвинтар (1066)",,49.896891,23.965479,UA46060250040091928,79491,Україна,Львівська область,Львівський,Львівська ,Брюховичі,вул. Львівська,,,0,,0,,Europe/Kyiv,
5158,1060,"Брюховичі, Курортна (1060)",,49.904525,23.960071,UA46060250040091928,79491,Україна,Львівська область,Львівський,Львівська ,Брюховичі,вул. Львівська,21,,0,,0,,Europe/Kyiv,
4651,1069,"Брюховичі, Джерело (1069)",,49.901459,23.960063,UA46060250040091928,79491,Україна,Львівська область,Львівський,Львівська ,Брюховичі,вул. Львівська,,,0,,0,,Europe/Kyiv,
4880,156,Будинок меблів (156),,49.824968,23.979067,UA46060250010015970,79000,Україна,Львівська область,Львівський,Львівська ,Львів,вул. Любінська,,"вул. Зоряна, 4",0,,0,,Europe/Kyiv,
z-728,728,Тустань (728),,49.817607,23.959696,UA46060250010015970,79000,Україна,Львівська область,Львівський,Львівська ,Львів,вул. Любінська,168а,навпроти №168а,0,,0,,Europe/Kyiv,
4883,149,Караджича (149),,49.822054,23.972538,UA46060250010015970,79000,Україна,Львівська область,Львівський,Львівська ,Львів,вул. Любінська,102,,0,,0,,Europe/Kyiv,
5133,151,Любінська (151),,49.818925,23.963541,UA46060250010015970,79000,Україна,Львівська область,Львівський,Львівська ,Львів,вул. Любінська,160,,0,,0,,Europe/Kyiv,
z-153,153,Аеропорт (153),,49.81282,23.962115,UA46060250010015970,79000,Україна,Львівська область,Львівський,Львівська ,Львів,вул. Любінська,168,,0,,0,,Europe/Kyiv,
z-155,155,Тустань (155),,49.817648,23.959733,UA46060250010015970,79000,Україна,Львівська область,Львівський,Львівська ,Львів,вул. Любінська,168а,,0,,0,,Europe/Kyiv,
5130,154,Любінська (154),,49.819341,23.965441,UA46060250010015970,79000,Україна,Львівська область,Львівський,Львівська ,Львів,вул. Любінська,171,,0,,0,,Europe/Kyiv,
44993,148,Любінська-Виговського (148),,49.820916,23.969706,UA46060250010015970,79000,Україна,Львівська область,Львівський,Львівська ,Львів,вул. Любінська,101,,0,,0,,Europe/Kyiv,
4892,158,Любінська-Виговського (158),,49.820928,23.969749,UA46060250010015970,79000,Україна,Львівська область,Львівський,Львівська ,Львів,вул. Любінська,101,,0,,0,,Europe/Kyiv,
44989,150,Любінська-Виговського (150),,49.82048,23.968177,UA46060250010015970,79000,Україна,Львівська область,Львівський,Львівська ,Львів,вул. Любінська,144,,0,,0,,Europe/Kyiv,
z-153-01,153-01,Аеропорт (153-01),,49.814059,23.960168,UA46060250010015970,79000,Україна,Львівська область,Львівський,Львівська ,Львів,вул. Любінська,168,,0,,0,,Europe/Kyiv,
z-152,152,Старий термінал (152),,49.816841,23.9557,UA46060250010015970,79000,Україна,Львівська область,Львівський,Львівська ,Львів,вул. Любінська,168,,0,,0,,Europe/Kyiv,
4702,535,Кульпарківська (535),,49.833502,23.990831,UA46060250010015970,79000,Україна,Львівська область,Львівський,Львівська ,Львів,вул. Любінська,4,,0,,0,,Europe/Kyiv,
4881,536,Окружна (536),,49.827376,23.98315,UA46060250010015970,79000,Україна,Львівська область,Львівський,Львівська ,Львів,вул. Любінська,60,,0,,0,,Europe/Kyiv,
44994,146,Караджича (146),,49.8227,23.974504,UA46060250010015970,79000,Україна,Львівська область,Львівський,Львівська ,Львів,вул. Любінська,91,,0,,0,,Europe/Kyiv,
4882,147,Будинок меблів (147),,49.823965,23.976738,UA46060250010015970,79000,Україна,Львівська область,Львівський,Львівська ,Львів,вул. Любінська,96,,0,,0,,Europe/Kyiv,
45342,707,Стадіон Сільмаш (707),,49.829067,23.987162,UA46060250010015970,79000,Україна,Львівська область,Львівський,Львівська ,Львів,вул. Любінська,1,,0,,0,,Europe/Kyiv,
4603,418,Гориня (418),,49.785729,24.051771,UA46060250010015970,79000,Україна,Львівська область,Львівський,Львівська ,Львів,вул. М. Гориня,27,,0,,0,,Europe/Kyiv,
45162,317,Гориня (317),,49.78664,24.051838,UA46060250010015970,79000,Україна,Львівська область,Львівський,Львівська ,Львів,вул. М. Гориня,2,,0,,0,,Europe/Kyiv,
4952,44,Площа Лема (44),,49.832644,24.018586,UA46060250010015970,79000,Україна,Львівська область,Львівський,Львівська ,Львів,вул. М. Коперника,41,,0,,0,,Europe/Kyiv,
4994,264,Заклинських (264),,49.850803,24.050075,UA46060250010015970,79000,Україна,Львівська область,Львівський,Львівська ,Львів,вул. М. Кордуби,12,,0,,0,,Europe/Kyiv,
4987,263,Заклинських (263),,49.850886,24.049469,UA46060250010015970,79000,Україна,Львівська область,Львівський,Львівська ,Львів,вул. М. Кордуби,5,,0,,0,,Europe/Kyiv,
4993,265,Кордуби (265),,49.850851,24.044692,UA46060250010015970,79000,Україна,Львівська область,Львівський,Львівська ,Львів,вул. М. Кордуби,2,,0,,0,,Europe/Kyiv,
4988,266,Кордуби (266),,49.850896,24.044464,UA46060250010015970,79000,Україна,Львівська область,Львівський,Львівська ,Львів,вул. М. Кордуби,2,,0,,0,,Europe/Kyiv,
5003,853,Княжа (853),,49.846157,24.041046,UA46060250010015970,79000,Україна,Львівська область,Львівський,Львівська ,Львів,вул. М. Кривоноса,14,,0,,0,,Europe/Kyiv,
2562810,852,Княжа (852),,49.846257,24.040976,UA46060250010015970,79000,Україна,Львівська область,Львівський,Львівська ,Львів,вул. М. Кривоноса,27,,0,,0,,Europe/Kyiv,
5148,417,Максимовича (417),,49.7934,24.022583,UA46060250010015970,79000,Україна,Львівська область,Львівський,Львівська ,Львів,вул. М. Максимовича,,,0,,0,,Europe/Kyiv,
z-417-01,417-01,Максимовича-висадка (417-01),,49.793466,24.022374,UA46060250010015970,79000,Україна,Львівська область,Львівський,Львівська ,Львів,вул. М. Максимовича,,,0,,0,,Europe/Kyiv,
5249,48,Устияновича (48),,49.836345,24.015968,UA46060250010015970,79000,Україна,Львівська область,Львівський,Львівська ,Львів,вул. М. Устияновича,5,,0,,0,,Europe/Kyiv,
5179,353,Центр легеневого здоров’я (353),,49.783065,24.097314,UA46060250010015970,79000,Україна,Львівська область,Львівський,Львівська ,Львів,вул. Медична,2,,0,,0,,Europe/Kyiv,
5178,390,Центр легеневого здоров’я (390),,49.783036,24.09751,UA46060250010015970,79000,Україна,Львівська область,Львівський,Львівська ,Львів,вул. Медична,2,,0,,0,,Europe/Kyiv,
z-714,714,Майорівка (714),,49.826259,24.072944,UA46060250010015970,79000,Україна,Львівська область,Львівський,Львівська ,Львів,вул. Медової Печери,,"вул. Пасічна, 59",0,,0,,Europe/Kyiv,
4869,267,Майорівка (267),,49.826636,24.07281,UA46060250010015970,79000,Україна,Львівська область,Львівський,Львівська ,Львів,вул. Медової Печери,1,,0,,0,,Europe/Kyiv,
z-70-1,70-1,Медової Печери (70-1),,49.822982,24.084064,UA46060250010015970,79000,Україна,Львівська область,Львівський,Львівська ,Львів,вул. Медової Печери,38а,,0,,0,,Europe/Kyiv,
4867,270,Медової Печери (270),,49.822999,24.084156,UA46060250010015970,79000,Україна,Львівська область,Львівський,Львівська ,Львів,вул. Медової Печери,67,,0,,0,,Europe/Kyiv,
42778,465,Мельника (465),,49.830068,24.004971,UA46060250010015970,79000,Україна,Львівська область,Львівський,Львівська ,Львів,вул. А. Мельника,21,,0,,0,,Europe/Kyiv,
44810,225,Личаківський цвинтар (225),,49.833667,24.05204,UA46060250010015970,79000,Україна,Львівська область,Львівський,Львівська ,Львів,вул. І. Мечникова,,вхід на цвинтар,0,,0,,Europe/Kyiv,
45022,227,Інфекційна лікарня (227),,49.832806,24.050338,UA46060250010015970,79000,Україна,Львівська область,Львівський,Львівська ,Львів,вул. І. Мечникова,,"вул. Пекарська, 54",0,,0,,Europe/Kyiv,
2562630,799,Меморіал Героїв України (799),,49.835434,24.053165,UA46060250010015970,79000,Україна,Львівська область,Львівський,Львівська ,Львів,вул. І. Мечникова,,навпроти №10,0,,0,,Europe/Kyiv,
44809,226,Личаківський цвинтар (226),,49.83408,24.052192,UA46060250010015970,79000,Україна,Львівська область,Львівський,Львівська ,Львів,вул. І. Мечникова,10,,0,,0,,Europe/Kyiv,
2562629,798,Меморіал Героїв України (798),,49.835588,24.053203,UA46060250010015970,79000,Україна,Львівська область,Львівський,Львівська ,Львів,вул. І. Мечникова,10,,0,,0,,Europe/Kyiv,
2560977,817,"Голосківський цвинтар, 36 поле (817)",,49.88457,24.030037,UA46060250010015970,79000,Україна,Львівська область,Львівський,Львівська ,Львів,вул. І. Миколайчука,,,0,,0,,Europe/Kyiv,
2560978,818,"Голосківський цвинтар, 36 поле (818)",,49.884429,24.030093,UA46060250010015970,79000,Україна,Львівська область,Львівський,Львівська ,Львів,вул. І. Миколайчука,,,0,,0,,Europe/Kyiv,
2562634,836,Центр протезування (836),,49.88643,24.0265,UA46060250010015970,79000,Україна,Львівська область,Львівський,Львівська ,Львів,вул. І. Миколайчука,,,0,,0,,Europe/Kyiv,
2562635,837,Центр протезування (837),,49.88651,24.02643,UA46060250010015970,79000,Україна,Львівська область,Львівський,Львівська ,Львів,вул. І. Миколайчука,,,0,,0,,Europe/Kyiv,
2562981,849,Незламні (849),,49.881,24.03267,UA46060250010015970,79000,Україна,Львівська область,Львівський,Львівська ,Львів,вул. І. Миколайчука,38,,0,,0,,Europe/Kyiv,
2562980,850,Незламні (850),,49.88065,24.03323,UA46060250010015970,79000,Україна,Львівська область,Львівський,Львівська ,Львів,вул. І. Миколайчука,38,,0,,0,,Europe/Kyiv,
2560979,295,Голосківський цвинтар (295),,49.887971,24.020703,UA46060250010015970,79000,Україна,Львівська область,Львівський,Львівська ,Львів,вул. І. Миколайчука,42,,0,,0,,Europe/Kyiv,
5128,664,"Віри, Надії, Любові (664)",,49.876272,24.038912,UA46060250010015970,79000,Україна,Львівська область,Львівський,Львівська ,Львів,вул. І. Миколайчука,9,,0,,0,,Europe/Kyiv,
5252,781,Собор Святого Юра (781),,49.836945,24.011532,UA46060250010015970,79000,Україна,Львівська область,Львівський,Львівська ,Львів,вул. Митрополита Андрея,2,,0,,0,,Europe/Kyiv,
5036,49,Бандери (49),,49.835586,24.005875,UA46060250010015970,79000,Україна,Львівська область,Львівський,Львівська ,Львів,вул. Митрополита Андрея,38,,0,,0,,Europe/Kyiv,
2562825,846,Народна (846),,49.832701,23.984151,UA46060250010015970,79000,Україна,Львівська область,Львівський,Львівська ,Львів,вул. Народна,6,,0,,0,,Europe/Kyiv,
